{"type": "FeatureCollection", "features": [{"type": "Feature", "id": 5803, "geometry": {"type": "Point", "coordinates": [116.6104713, 40.0534133]}, "properties": {"id": 5803, "name": "全家首都机场一店", "chain_slug": "family-mart", "category_slug": "supermarket", "address": "北京市顺义区首都国际机场二号航站楼一层Y111（首都机场内）", "city": "北京"}}, {"type": "Feature", "id": 5804, "geometry": {"type": "Point", "coordinates": [116.3747896, 39.8686285]}, "properties": {"id": 5804, "name": "全家开阳路一店", "chain_slug": "family-mart", "category_slug": "supermarket", "address": "北京市丰台区永外大街12号北京南站北入口内西北角01区域", "city": "北京"}}, {"type": "Feature", "id": 5805, "geometry": {"type": "Point", "coordinates": [116.4467965, 39.9064487]}, "properties": {"id": 5805, "name": "全家建国门内大街一店", "chain_slug": "family-mart", "category_slug": "supermarket", "address": "北京市朝阳区建国门外大街8号北京财源中心（IFC）西塔B1层113室", "city": "北京"}}, {"type": "Feature", "id": 5806, "geometry": {"type": "Point", "coordinates": [116.5948393, 39.9262213]}, "properties": {"id": 5806, "name": "全家常营一店", "chain_slug": "family-mart", "category_slug": "supermarket", "address": "北京市朝阳区常惠路6号楼1层101", "city": "北京"}}, {"type": "Feature", "id": 5807, "geometry": {"type": "Point", "coordinates": [116.4088776, 40.071265]}, "properties": {"id": 5807, "name": "全家天通苑店", "chain_slug": "family-mart", "category_slug": "supermarket", "address": "北京市昌平区天通苑清华长庚医院住院部B1层商业街B1-04柜（非营业执照地址）", "city": "北京"}}, {"type": "Feature", "id": 5808, "geometry": {"type": "Point", "coordinates": [116.6038613, 40.1135694]}, "properties": {"id": 5808, "name": "全家南法信一店", "chain_slug": "family-mart", "category_slug": "supermarket", "address": "北京市顺义区南法信镇机场北街8号院2幢120室", "city": "北京"}}, {"type": "Feature", "id": 5809, "geometry": {"type": "Point", "coordinates": [116.603337, 40.1120158]}, "properties": {"id": 5809, "name": "全家南法信二店", "chain_slug": "family-mart", "category_slug": "supermarket", "address": "北京市顺义区南法信镇金穗路2号院7号楼1层102", "city": "北京"}}, {"type": "Feature", "id": 5810, "geometry": {"type": "Point", "coordinates": [116.3718341, 39.8662894]}, "properties": {"id": 5810, "name": "全家开阳路二店", "chain_slug": "family-mart", "category_slug": "supermarket", "address": "北京市丰台区北京南站交换层8号快速进站厅北侧之南侧", "city": "北京"}}, {"type": "Feature", "id": 5811, "geometry": {"type": "Point", "coordinates": [116.3718341, 39.8662894]}, "properties": {"id": 5811, "name": "全家开阳路三店", "chain_slug": "family-mart", "category_slug": "supermarket", "address": "北京市丰台区北京南站换乘层6号售票厅北侧", "city": "北京"}}, {"type": "Feature", "id": 5812, "geometry": {"type": "Point", "coordinates": [116.429256, 39.9402867]}, "properties": {"id": 5812, "name": "全家东直门店", "chain_slug": "family-mart", "category_slug": "supermarket", "address": "北京市东城区东直门外大街39号院公交商业用房南侧一层A15号铺位", "city": "北京"}}, {"type": "Feature", "id": 5813, "geometry": {"type": "Point", "coordinates": [116.4189407, 39.9281675]}, "properties": {"id": 5813, "name": "全家东单店", "chain_slug": "family-mart", "category_slug": "supermarket", "address": "北京市东城区麻线胡同32号迤东4幢（05-06）", "city": "北京"}}, {"type": "Feature", "id": 5814, "geometry": {"type": "Point", "coordinates": [116.4610827, 39.8837623]}, "properties": {"id": 5814, "name": "全家武圣路店", "chain_slug": "family-mart", "category_slug": "supermarket", "address": "北京市朝阳区南磨房37号1层103室", "city": "北京"}}, {"type": "Feature", "id": 5815, "geometry": {"type": "Point", "coordinates": [116.4030088, 39.9085369]}, "properties": {"id": 5815, "name": "全家霞公府店", "chain_slug": "family-mart", "category_slug": "supermarket", "address": "北京市东城区霞公府街1号首层1-1号", "city": "北京"}}, {"type": "Feature", "id": 5816, "geometry": {"type": "Point", "coordinates": [116.3962714, 39.9680575]}, "properties": {"id": 5816, "name": "全家安定路店", "chain_slug": "family-mart", "category_slug": "supermarket", "address": "北京市朝阳区安贞里三区26号楼26-6内1层01", "city": "北京"}}, {"type": "Feature", "id": 5817, "geometry": {"type": "Point", "coordinates": [116.5912518, 40.0388246]}, "properties": {"id": 5817, "name": "全家小天竺二街店", "chain_slug": "family-mart", "category_slug": "supermarket", "address": "北京市顺义区天竺镇蓝海苑5号楼五单元102", "city": "北京"}}, {"type": "Feature", "id": 5818, "geometry": {"type": "Point", "coordinates": [116.3161318, 39.8945642]}, "properties": {"id": 5818, "name": "全家莲花池东路店", "chain_slug": "family-mart", "category_slug": "supermarket", "address": "北京市丰台区西客站莲花池东路120号-2(西客站北广场地下一层)-西8号", "city": "北京"}}, {"type": "Feature", "id": 5819, "geometry": {"type": "Point", "coordinates": [116.4071045, 39.9132323]}, "properties": {"id": 5819, "name": "全家金鱼胡同店", "chain_slug": "family-mart", "category_slug": "supermarket", "address": "北京市东城区王府井东街8号澳门中心1层102(L119、L120铺位)", "city": "北京"}}, {"type": "Feature", "id": 5820, "geometry": {"type": "Point", "coordinates": [116.4638719, 39.9087704]}, "properties": {"id": 5820, "name": "全家郎家园路店", "chain_slug": "family-mart", "category_slug": "supermarket", "address": "北京市朝阳区建国路93号院9号楼1层108室", "city": "北京"}}, {"type": "Feature", "id": 5821, "geometry": {"type": "Point", "coordinates": [116.4274825, 39.9029478]}, "properties": {"id": 5821, "name": "全家东便门店", "chain_slug": "family-mart", "category_slug": "supermarket", "address": "北京市东城区建国门南大街7号L103B", "city": "北京"}}, {"type": "Feature", "id": 5822, "geometry": {"type": "Point", "coordinates": [116.4239942, 40.046462]}, "properties": {"id": 5822, "name": "全家清河营店", "chain_slug": "family-mart", "category_slug": "supermarket", "address": "北京市朝阳区清河营南街7号院9号楼1层105", "city": "北京"}}, {"type": "Feature", "id": 5823, "geometry": {"type": "Point", "coordinates": [116.3355031, 39.9453951]}, "properties": {"id": 5823, "name": "全家高梁桥斜街店", "chain_slug": "family-mart", "category_slug": "supermarket", "address": "北京市海淀区高粱桥斜街19号绿色能源产业基地商业街6-1号商铺", "city": "北京"}}, {"type": "Feature", "id": 5824, "geometry": {"type": "Point", "coordinates": [116.5829087, 40.0459336]}, "properties": {"id": 5824, "name": "全家小天竺一街店", "chain_slug": "family-mart", "category_slug": "supermarket", "address": "北京市顺义区小天竺路1号1幢1层大厅北侧101", "city": "北京"}}, {"type": "Feature", "id": 5825, "geometry": {"type": "Point", "coordinates": [116.3542979, 40.0369401]}, "properties": {"id": 5825, "name": "全家东升软件园店", "chain_slug": "family-mart", "category_slug": "supermarket", "address": "北京市海淀区西小口路66号中关村东升科技园B-6号楼C座一层C105室", "city": "北京"}}, {"type": "Feature", "id": 5826, "geometry": {"type": "Point", "coordinates": [116.5244963, 39.7837405]}, "properties": {"id": 5826, "name": "全家同济南路店", "chain_slug": "family-mart", "category_slug": "supermarket", "address": "北京市北京经济技术开发区同济南路1号院1号楼1层043单元", "city": "北京"}}, {"type": "Feature", "id": 5827, "geometry": {"type": "Point", "coordinates": [116.3041084, 39.9892597]}, "properties": {"id": 5827, "name": "全家燕南园店（非营业执照名称）", "chain_slug": "family-mart", "category_slug": "supermarket", "address": "北京市海淀区北京大学内29楼地下一层1号（非营业执照地址）", "city": "北京"}}, {"type": "Feature", "id": 5828, "geometry": {"type": "Point", "coordinates": [116.4300463, 39.9818482]}, "properties": {"id": 5828, "name": "全家芍药居店", "chain_slug": "family-mart", "category_slug": "supermarket", "address": "北京市朝阳区芍药居34号楼101号内10", "city": "北京"}}, {"type": "Feature", "id": 5829, "geometry": {"type": "Point", "coordinates": [116.4691584, 39.9059906]}, "properties": {"id": 5829, "name": "全家现代城中路店", "chain_slug": "family-mart", "category_slug": "supermarket", "address": "北京市朝阳区建国路88号7-10号楼1至2层0201-2", "city": "北京"}}, {"type": "Feature", "id": 5830, "geometry": {"type": "Point", "coordinates": [116.6104713, 40.0534133]}, "properties": {"id": 5830, "name": "全家首都机场二店", "chain_slug": "family-mart", "category_slug": "supermarket", "address": "北京市顺义区首都国际机场二号航站楼二层E001-E002（首都机场内）", "city": "北京"}}, {"type": "Feature", "id": 5831, "geometry": {"type": "Point", "coordinates": [116.6104713, 40.0534133]}, "properties": {"id": 5831, "name": "全家首都机场三店", "chain_slug": "family-mart", "category_slug": "supermarket", "address": "北京市顺义区首都国际机场三号航站楼A2W6-5（首都机场内）", "city": "北京"}}, {"type": "Feature", "id": 5832, "geometry": {"type": "Point", "coordinates": [116.6104713, 40.0534133]}, "properties": {"id": 5832, "name": "全家首都机场四店", "chain_slug": "family-mart", "category_slug": "supermarket", "address": "北京市顺义区首都国际机场三号航站楼A4E5（首都机场内）", "city": "北京"}}, {"type": "Feature", "id": 5833, "geometry": {"type": "Point", "coordinates": [114.0871731, 22.5430201]}, "properties": {"id": 5833, "name": "全家深南路店", "chain_slug": "family-mart", "category_slug": "supermarket", "address": "深圳市福田区深南中路统建办公楼3栋1层A01/A02室", "city": "深圳"}}, {"type": "Feature", "id": 5834, "geometry": {"type": "Point", "coordinates": [114.0613739, 22.5256667]}, "properties": {"id": 5834, "name": "全家福民路店", "chain_slug": "family-mart", "category_slug": "supermarket", "address": "深圳市福田区福民路南金三角地区时代星居第一栋101号房-E之1", "city": "深圳"}}, {"type": "Feature", "id": 5835, "geometry": {"type": "Point", "coordinates": [114.0710113, 22.7258306]}, "properties": {"id": 5835, "name": "全家观澜一店（行政楼）", "chain_slug": "family-mart", "category_slug": "supermarket", "address": "深圳市龙华新区观澜湖高尔夫F8区负101", "city": "深圳"}}, {"type": "Feature", "id": 5836, "geometry": {"type": "Point", "coordinates": [114.0806439, 22.7322923]}, "properties": {"id": 5836, "name": "全家观澜二店（员工宿舍）", "chain_slug": "family-mart", "category_slug": "supermarket", "address": "深圳市龙华新区观澜广培社区高尔夫0100010号101", "city": "深圳"}}, {"type": "Feature", "id": 5837, "geometry": {"type": "Point", "coordinates": [114.1074631, 22.5515062]}, "properties": {"id": 5837, "name": "全家便利店（桂园二店）", "chain_slug": "family-mart", "category_slug": "supermarket", "address": "深圳市罗湖区桂园路红群楼红围小区30栋102", "city": "深圳"}}, {"type": "Feature", "id": 5838, "geometry": {"type": "Point", "coordinates": [114.0218147, 22.5352811]}, "properties": {"id": 5838, "name": "全家便利店（苍松大厦店）", "chain_slug": "family-mart", "category_slug": "supermarket", "address": "深圳市福田区泰然六路泰然科技园苍松大厦一层101-02A", "city": "深圳"}}, {"type": "Feature", "id": 5839, "geometry": {"type": "Point", "coordinates": [114.1361257, 22.5605511]}, "properties": {"id": 5839, "name": "全家便利店（黄贝岭路店）", "chain_slug": "family-mart", "category_slug": "supermarket", "address": "深圳市罗湖区黄贝路28号七层综合楼第一层107号", "city": "深圳"}}, {"type": "Feature", "id": 5840, "geometry": {"type": "Point", "coordinates": [113.9218092, 22.66254]}, "properties": {"id": 5840, "name": "全家梧桐店", "chain_slug": "family-mart", "category_slug": "supermarket", "address": "深圳市宝安区西乡街道固戍开发区泰华梧桐工业园4号", "city": "深圳"}}, {"type": "Feature", "id": 5841, "geometry": {"type": "Point", "coordinates": [113.9236056, 22.515889]}, "properties": {"id": 5841, "name": "全家便利店（深蓝公寓店）", "chain_slug": "family-mart", "category_slug": "supermarket", "address": "深圳市南山区南商路西龙城路北深蓝公寓106", "city": "深圳"}}, {"type": "Feature", "id": 5842, "geometry": {"type": "Point", "coordinates": [114.0738458, 22.5396658]}, "properties": {"id": 5842, "name": "全家便利店（福华路店）", "chain_slug": "family-mart", "category_slug": "supermarket", "address": "深圳市福田区福华路202号", "city": "深圳"}}, {"type": "Feature", "id": 5843, "geometry": {"type": "Point", "coordinates": [114.0608573, 22.5415556]}, "properties": {"id": 5843, "name": "全家便利店（华嵘大厦店）", "chain_slug": "family-mart", "category_slug": "supermarket", "address": "深圳市福田区深南大道南岗厦华嵘大厦102", "city": "深圳"}}, {"type": "Feature", "id": 5844, "geometry": {"type": "Point", "coordinates": [113.9399737, 22.5408387]}, "properties": {"id": 5844, "name": "全家便利店（储能大厦店）", "chain_slug": "family-mart", "category_slug": "supermarket", "address": "深圳市南山区粤海街道科苑南路3099号中国储能大厦一层D单位", "city": "深圳"}}, {"type": "Feature", "id": 5845, "geometry": {"type": "Point", "coordinates": [113.8953504, 22.5324771]}, "properties": {"id": 5845, "name": "全家卓越前海壹号店", "chain_slug": "family-mart", "category_slug": "supermarket", "address": "广东省深圳市南山区梦海大道5033", "city": "广东省深圳"}}, {"type": "Feature", "id": 5846, "geometry": {"type": "Point", "coordinates": [114.1326703, 22.5518517]}, "properties": {"id": 5846, "name": "全家黄贝岭魔坊店", "chain_slug": "family-mart", "category_slug": "supermarket", "address": "深圳市罗湖区黄贝街道黄贝岭站物业区A-03", "city": "深圳"}}, {"type": "Feature", "id": 5847, "geometry": {"type": "Point", "coordinates": [113.9216164, 22.5187902]}, "properties": {"id": 5847, "name": "全家便利店（海王大厦店）", "chain_slug": "family-mart", "category_slug": "supermarket", "address": "深圳市南山区南山街道南海大道2225号海王大厦裙楼1层105、106室", "city": "深圳"}}, {"type": "Feature", "id": 5848, "geometry": {"type": "Point", "coordinates": [114.043025, 22.5509329]}, "properties": {"id": 5848, "name": "全家便利店（第壹世界广场店）", "chain_slug": "family-mart", "category_slug": "supermarket", "address": "深圳市福田区红荔西路7002号第壹世界广场七巧国楼二楼A8", "city": "深圳"}}, {"type": "Feature", "id": 5849, "geometry": {"type": "Point", "coordinates": [114.0473923, 22.5406386]}, "properties": {"id": 5849, "name": "全家便利店（新华保险大厦店）", "chain_slug": "family-mart", "category_slug": "supermarket", "address": "深圳市福田区深南大道与民田路交界西南新华保险大厦115", "city": "深圳"}}, {"type": "Feature", "id": 5850, "geometry": {"type": "Point", "coordinates": [114.0454403, 22.5676674]}, "properties": {"id": 5850, "name": "全家地铁梅村站店", "chain_slug": "family-mart", "category_slug": "supermarket", "address": "深圳市福田区梅林街道地铁9号线梅村站s09m51铺", "city": "深圳"}}, {"type": "Feature", "id": 5851, "geometry": {"type": "Point", "coordinates": [114.0935742, 22.5700342]}, "properties": {"id": 5851, "name": "全家地铁泥岗站店", "chain_slug": "family-mart", "category_slug": "supermarket", "address": "深圳市罗湖区清水河街道地铁9号线泥岗站01商铺", "city": "深圳"}}, {"type": "Feature", "id": 5852, "geometry": {"type": "Point", "coordinates": [114.1198549, 22.5379885]}, "properties": {"id": 5852, "name": "全家地铁人民南路站店", "chain_slug": "family-mart", "category_slug": "supermarket", "address": "深圳市罗湖区南湖街道深圳地铁9号线人民南站S09-RMN-2-01商铺", "city": "深圳"}}, {"type": "Feature", "id": 5853, "geometry": {"type": "Point", "coordinates": [114.0561651, 22.6557022]}, "properties": {"id": 5853, "name": "全家华为基地店", "chain_slug": "family-mart", "category_slug": "supermarket", "address": "广东省深圳市龙岗区坂田街道华为基地B3首层", "city": "广东省深圳"}}, {"type": "Feature", "id": 5854, "geometry": {"type": "Point", "coordinates": [114.0523821, 22.5367315]}, "properties": {"id": 5854, "name": "全家卓越时代店", "chain_slug": "family-mart", "category_slug": "supermarket", "address": "广东省深圳市福田区福田街道益田路与福华路交汇处卓越时代广场负一楼101-A-1", "city": "广东省深圳"}}, {"type": "Feature", "id": 5855, "geometry": {"type": "Point", "coordinates": [113.7505959, 23.0231003]}, "properties": {"id": 5855, "name": "全家南城广发大厦店", "chain_slug": "family-mart", "category_slug": "supermarket", "address": "广东省东莞市南城区新城石竹路3号广发金融大厦商业楼1楼08B单元物业", "city": "广东省东莞"}}, {"type": "Feature", "id": 5856, "geometry": {"type": "Point", "coordinates": [113.8828196, 22.9490096]}, "properties": {"id": 5856, "name": "全家创新园店", "chain_slug": "family-mart", "category_slug": "supermarket", "address": "广东省东莞市松山湖高新技术产业开发区科技十路5号国际金融IT研发中心第1栋1层103室", "city": "广东省东莞"}}, {"type": "Feature", "id": 5857, "geometry": {"type": "Point", "coordinates": [113.4953778, 23.164459]}, "properties": {"id": 5857, "name": "全家东荟城店", "chain_slug": "family-mart", "category_slug": "supermarket", "address": "广州市萝岗区东荟二街53、55、57号铺", "city": "广州"}}, {"type": "Feature", "id": 5858, "geometry": {"type": "Point", "coordinates": [113.2166328, 23.1577541]}, "properties": {"id": 5858, "name": "全家松南路店", "chain_slug": "family-mart", "category_slug": "supermarket", "address": "广州市松南公交车场", "city": "广州"}}, {"type": "Feature", "id": 5859, "geometry": {"type": "Point", "coordinates": [113.3145108, 23.1294162]}, "properties": {"id": 5859, "name": "全家保利克洛维店", "chain_slug": "family-mart", "category_slug": "supermarket", "address": "广州市天河区华强路保利克洛维广场一期一层101铺", "city": "广州"}}, {"type": "Feature", "id": 5860, "geometry": {"type": "Point", "coordinates": [113.3763722, 23.1221477]}, "properties": {"id": 5860, "name": "全家创意园店", "chain_slug": "family-mart", "category_slug": "supermarket", "address": "广东省广州市天河区黄埔大道中309号羊城产业创意园自编3-11-1", "city": "广东省广州"}}, {"type": "Feature", "id": 5861, "geometry": {"type": "Point", "coordinates": [113.3558667, 22.9502951]}, "properties": {"id": 5861, "name": "全家喜悦店", "chain_slug": "family-mart", "category_slug": "supermarket", "address": "广州番禺区光明北路223号喜悦天地（部位125）", "city": "广州"}}, {"type": "Feature", "id": 5862, "geometry": {"type": "Point", "coordinates": [113.3461283, 23.1523384]}, "properties": {"id": 5862, "name": "全家岳洲路店", "chain_slug": "family-mart", "category_slug": "supermarket", "address": "广州市天河区岳洲路53号五山综合楼首层自编9号之二", "city": "广州"}}, {"type": "Feature", "id": 5863, "geometry": {"type": "Point", "coordinates": [113.2992508, 23.380446]}, "properties": {"id": 5863, "name": "全家白云机场1店", "chain_slug": "family-mart", "category_slug": "supermarket", "address": "广州花都区白云国际机场候机楼商铺编号C9135", "city": "广州"}}, {"type": "Feature", "id": 5864, "geometry": {"type": "Point", "coordinates": [113.2992508, 23.380446]}, "properties": {"id": 5864, "name": "全家白云机场2店", "chain_slug": "family-mart", "category_slug": "supermarket", "address": "广州花都区白云国际机场候机楼商铺编号C9007", "city": "广州"}}, {"type": "Feature", "id": 5865, "geometry": {"type": "Point", "coordinates": [113.3489266, 23.0904708]}, "properties": {"id": 5865, "name": "全家财经大学二店", "chain_slug": "family-mart", "category_slug": "supermarket", "address": "广东省广州市海珠区赤沙路21号广州财经大学内广商酒店一楼大堂", "city": "广东省广州"}}, {"type": "Feature", "id": 5866, "geometry": {"type": "Point", "coordinates": [113.2354325, 23.1134036]}, "properties": {"id": 5866, "name": "全家西城都荟店", "chain_slug": "family-mart", "category_slug": "supermarket", "address": "广州市荔湾区黄沙大道8号西城都荟一层180、181、182铺", "city": "广州"}}, {"type": "Feature", "id": 5867, "geometry": {"type": "Point", "coordinates": [113.3862751, 23.0652251]}, "properties": {"id": 5867, "name": "全家高高新天地店", "chain_slug": "family-mart", "category_slug": "supermarket", "address": "广东省广州市番禺区GOGO新天地二期一楼", "city": "广东省广州"}}, {"type": "Feature", "id": 5868, "geometry": {"type": "Point", "coordinates": [113.3042288, 23.1375609]}, "properties": {"id": 5868, "name": "全家恒鑫大厦店", "chain_slug": "family-mart", "category_slug": "supermarket", "address": "广东省广州市越秀区水荫路2号之二101房", "city": "广东省广州"}}, {"type": "Feature", "id": 5869, "geometry": {"type": "Point", "coordinates": [113.2483249, 23.1240015]}, "properties": {"id": 5869, "name": "全家人民中路店", "chain_slug": "family-mart", "category_slug": "supermarket", "address": "广州市荔湾区人民中路348号一层南侧铺", "city": "广州"}}, {"type": "Feature", "id": 5870, "geometry": {"type": "Point", "coordinates": [113.2868511, 23.0753268]}, "properties": {"id": 5870, "name": "全家海珠新都荟店", "chain_slug": "family-mart", "category_slug": "supermarket", "address": "广东省广州市海珠区东晓南路1290号101房（部位：东晓南路1290号101房自编1-C08-01）", "city": "广东省广州"}}, {"type": "Feature", "id": 5871, "geometry": {"type": "Point", "coordinates": [113.2699014, 23.1255961]}, "properties": {"id": 5871, "name": "全家德政中路店", "chain_slug": "family-mart", "category_slug": "supermarket", "address": "广州市越秀区德政中路213号首层", "city": "广州"}}, {"type": "Feature", "id": 5872, "geometry": {"type": "Point", "coordinates": [113.5917597, 22.7821769]}, "properties": {"id": 5872, "name": "全家东风东路三店", "chain_slug": "family-mart", "category_slug": "supermarket", "address": "广州市越秀区东风东路东发街1号102铺", "city": "广州"}}, {"type": "Feature", "id": 5873, "geometry": {"type": "Point", "coordinates": [113.3303767, 23.092931]}, "properties": {"id": 5873, "name": "全家石榴岗店", "chain_slug": "family-mart", "category_slug": "supermarket", "address": "海珠区石榴岗路13号医院大堂", "city": "广州"}}, {"type": "Feature", "id": 5874, "geometry": {"type": "Point", "coordinates": [113.3143953, 23.1261038]}, "properties": {"id": 5874, "name": "全家星汇园店", "chain_slug": "family-mart", "category_slug": "supermarket", "address": "广东省广州市天河区金穗路46号102单元及101单元", "city": "广东省广州"}}, {"type": "Feature", "id": 5875, "geometry": {"type": "Point", "coordinates": [113.2334094, 23.1046245]}, "properties": {"id": 5875, "name": "全家立白大厦店", "chain_slug": "family-mart", "category_slug": "supermarket", "address": "广东省广州市荔湾区长堤街109号一层102房", "city": "广东省广州"}}, {"type": "Feature", "id": 5876, "geometry": {"type": "Point", "coordinates": [113.2674769, 23.1396166]}, "properties": {"id": 5876, "name": "全家小北二店", "chain_slug": "family-mart", "category_slug": "supermarket", "address": "广州市越秀区小北路208号首、二层", "city": "广州"}}, {"type": "Feature", "id": 5877, "geometry": {"type": "Point", "coordinates": [113.2512414, 23.0428641]}, "properties": {"id": 5877, "name": "全家锦绣半岛店", "chain_slug": "family-mart", "category_slug": "supermarket", "address": "广东省广州市番禺区洛浦街南浦环岛西路锦岸街14号商铺", "city": "广东省广州"}}, {"type": "Feature", "id": 5878, "geometry": {"type": "Point", "coordinates": [113.3442653, 23.0107088]}, "properties": {"id": 5878, "name": "全家番禺万达店", "chain_slug": "family-mart", "category_slug": "supermarket", "address": "番禺区南村镇汇智三路156号商铺", "city": "广州"}}, {"type": "Feature", "id": 5879, "geometry": {"type": "Point", "coordinates": [113.3294422, 23.1285701]}, "properties": {"id": 5879, "name": "全家盈泰大厦店", "chain_slug": "family-mart", "category_slug": "supermarket", "address": "广东省广州市天河区黄埔大道西100号103（部位C）", "city": "广东省广州"}}, {"type": "Feature", "id": 5880, "geometry": {"type": "Point", "coordinates": [113.4068959, 23.1734061]}, "properties": {"id": 5880, "name": "全家软件路二店", "chain_slug": "family-mart", "category_slug": "supermarket", "address": "广东省广州市天河区软件路11号", "city": "广东省广州"}}, {"type": "Feature", "id": 5881, "geometry": {"type": "Point", "coordinates": [113.3839988, 23.1283249]}, "properties": {"id": 5881, "name": "全家棠东东路店", "chain_slug": "family-mart", "category_slug": "supermarket", "address": "广东省广州市天河区棠东东路3号远洋创意园A-107单元", "city": "广东省广州"}}, {"type": "Feature", "id": 5882, "geometry": {"type": "Point", "coordinates": [113.2805497, 23.1462871]}, "properties": {"id": 5882, "name": "全家恒福路店", "chain_slug": "family-mart", "category_slug": "supermarket", "address": "越秀区恒福路78号首层自编A座之一", "city": "广州"}}, {"type": "Feature", "id": 5883, "geometry": {"type": "Point", "coordinates": [113.2668079, 23.1344663]}, "properties": {"id": 5883, "name": "全家城市广场店", "chain_slug": "family-mart", "category_slug": "supermarket", "address": "广州市越秀区东风中路439号越秀城市广场首层自编号102-3单元", "city": "广州"}}, {"type": "Feature", "id": 5884, "geometry": {"type": "Point", "coordinates": [113.3765587, 23.1273964]}, "properties": {"id": 5884, "name": "全家合生骏景店", "chain_slug": "family-mart", "category_slug": "supermarket", "address": "广州市天河区中山大道西1138号", "city": "广州"}}, {"type": "Feature", "id": 5885, "geometry": {"type": "Point", "coordinates": [113.263693, 23.1303173]}, "properties": {"id": 5885, "name": "全家瑞安中心店", "chain_slug": "family-mart", "category_slug": "supermarket", "address": "广州市越秀区北京路374号之四301房自编A", "city": "广州"}}, {"type": "Feature", "id": 5886, "geometry": {"type": "Point", "coordinates": [113.2664365, 23.1318726]}, "properties": {"id": 5886, "name": "全家仓边路店", "chain_slug": "family-mart", "category_slug": "supermarket", "address": "越秀区仓边路56号自编05铺", "city": "广州"}}, {"type": "Feature", "id": 5887, "geometry": {"type": "Point", "coordinates": [113.3127088, 23.0209684]}, "properties": {"id": 5887, "name": "全家群贤路店", "chain_slug": "family-mart", "category_slug": "supermarket", "address": "广东省广州市番禺区群贤路100号前座1F-3、4号铺", "city": "广东省广州"}}, {"type": "Feature", "id": 5888, "geometry": {"type": "Point", "coordinates": [113.2627397, 23.1315575]}, "properties": {"id": 5888, "name": "全家广仁路店", "chain_slug": "family-mart", "category_slug": "supermarket", "address": "越秀区广仁路10号首层102号", "city": "广州"}}, {"type": "Feature", "id": 5889, "geometry": {"type": "Point", "coordinates": [113.466089, 23.255172]}, "properties": {"id": 5889, "name": "全家涉外学院店", "chain_slug": "family-mart", "category_slug": "supermarket", "address": "白云区沙太中路大源北28号广州涉外经济职业技术学院第一饭堂首层", "city": "号广州"}}, {"type": "Feature", "id": 5890, "geometry": {"type": "Point", "coordinates": [113.265458, 23.1078422]}, "properties": {"id": 5890, "name": "全家江南大道中店", "chain_slug": "family-mart", "category_slug": "supermarket", "address": "广东省广州市海珠区江南大道中79号益丰花园一楼", "city": "广东省广州"}}, {"type": "Feature", "id": 5891, "geometry": {"type": "Point", "coordinates": [113.317873, 23.1423517]}, "properties": {"id": 5891, "name": "全家曜一城店", "chain_slug": "family-mart", "category_slug": "supermarket", "address": "天河区天河北711号首层", "city": "广州"}}, {"type": "Feature", "id": 5892, "geometry": {"type": "Point", "coordinates": [113.2691591, 23.1411576]}, "properties": {"id": 5892, "name": "全家小北三店", "chain_slug": "family-mart", "category_slug": "supermarket", "address": "越秀区小北路246号首层101，107号", "city": "广州"}}, {"type": "Feature", "id": 5893, "geometry": {"type": "Point", "coordinates": [113.2354325, 23.1134036]}, "properties": {"id": 5893, "name": "全家西城都荟二店", "chain_slug": "family-mart", "category_slug": "supermarket", "address": "广州市荔湾区黄沙大道8号西城都荟一层1D商铺", "city": "广州"}}, {"type": "Feature", "id": 5894, "geometry": {"type": "Point", "coordinates": [113.9238028, 22.5109399]}, "properties": {"id": 5894, "name": "全家华普店", "chain_slug": "family-mart", "category_slug": "supermarket", "address": "天河区华明路13号首层9号铺", "city": "深圳"}}, {"type": "Feature", "id": 5895, "geometry": {"type": "Point", "coordinates": [113.2680407, 23.0898086]}, "properties": {"id": 5895, "name": "全家昌岗一店", "chain_slug": "family-mart", "category_slug": "supermarket", "address": "海珠区昌岗中路侨苑一街19-21首层", "city": "深圳"}}, {"type": "Feature", "id": 5896, "geometry": {"type": "Point", "coordinates": [113.9649806, 22.5447129]}, "properties": {"id": 5896, "name": "全家天河店", "chain_slug": "family-mart", "category_slug": "supermarket", "address": "天河区天河路375号123、124铺", "city": "深圳"}}, {"type": "Feature", "id": 5897, "geometry": {"type": "Point", "coordinates": [114.1132414, 22.5391562]}, "properties": {"id": 5897, "name": "全家华夏店", "chain_slug": "family-mart", "category_slug": "supermarket", "address": "华夏路49号津滨腾越大厦1栋1层106，107铺", "city": "深圳"}}, {"type": "Feature", "id": 5898, "geometry": {"type": "Point", "coordinates": [113.2611204, 23.1258389]}, "properties": {"id": 5898, "name": "全家西湖路店", "chain_slug": "family-mart", "category_slug": "supermarket", "address": "越秀区西湖路74号首层东侧之三", "city": "广州"}}, {"type": "Feature", "id": 5899, "geometry": {"type": "Point", "coordinates": [113.3795941, 23.1024523]}, "properties": {"id": 5899, "name": "全家万胜围地铁店", "chain_slug": "family-mart", "category_slug": "supermarket", "address": "海珠区广州地铁八号线万胜围站WSW-8-4S", "city": "海珠区广州"}}, {"type": "Feature", "id": 5900, "geometry": {"type": "Point", "coordinates": [113.325405, 23.1202801]}, "properties": {"id": 5900, "name": "全家中海花城湾店", "chain_slug": "family-mart", "category_slug": "supermarket", "address": "天河区兴民路221号101房自编4号", "city": "广州"}}, {"type": "Feature", "id": 5901, "geometry": {"type": "Point", "coordinates": [113.3435965, 23.0105821]}, "properties": {"id": 5901, "name": "全家汇智三路店", "chain_slug": "family-mart", "category_slug": "supermarket", "address": "广州市番禺区南村街道汇智三路135号", "city": "广州"}}, {"type": "Feature", "id": 5902, "geometry": {"type": "Point", "coordinates": [113.3198124, 23.1516603]}, "properties": {"id": 5902, "name": "全家芳村万象城二店", "chain_slug": "family-mart", "category_slug": "supermarket", "address": "广州市芳村大道中芳村万象城A39", "city": "广州"}}, {"type": "Feature", "id": 5903, "geometry": {"type": "Point", "coordinates": [114.046142, 22.5408711]}, "properties": {"id": 5903, "name": "全家卓越一店", "chain_slug": "family-mart", "category_slug": "supermarket", "address": "深圳市福田区深南路与新洲路交汇处东南侧卓越大厦105B", "city": "深圳"}}, {"type": "Feature", "id": 5904, "geometry": {"type": "Point", "coordinates": [114.1089835, 22.5464966]}, "properties": {"id": 5904, "name": "全家和平路店", "chain_slug": "family-mart", "category_slug": "supermarket", "address": "深圳市罗湖区和平路和平广场3009号裙楼第一层149号铺", "city": "深圳"}}, {"type": "Feature", "id": 5905, "geometry": {"type": "Point", "coordinates": [114.0989987, 22.5422512]}, "properties": {"id": 5905, "name": "全家红岭大厦店", "chain_slug": "family-mart", "category_slug": "supermarket", "address": "深圳市福田区红岭南路红岭大厦一栋红棉阁一层B1号铺", "city": "深圳"}}, {"type": "Feature", "id": 5906, "geometry": {"type": "Point", "coordinates": [114.0560091, 22.5354613]}, "properties": {"id": 5906, "name": "全家卓越世纪中心店", "chain_slug": "family-mart", "category_slug": "supermarket", "address": "深圳市福田区福华三路以南、海田路以西卓越世纪中心3、4号楼二区商业01层L119-L120号铺", "city": "深圳"}}, {"type": "Feature", "id": 5907, "geometry": {"type": "Point", "coordinates": [114.0888969, 22.5441657]}, "properties": {"id": 5907, "name": "全家华联街店", "chain_slug": "family-mart", "category_slug": "supermarket", "address": "深圳市福田区燕南路华联大厦地下商场、地下停车场负58", "city": "深圳"}}, {"type": "Feature", "id": 5908, "geometry": {"type": "Point", "coordinates": [114.1082014, 22.54749]}, "properties": {"id": 5908, "name": "全家桂园路店", "chain_slug": "family-mart", "category_slug": "supermarket", "address": "深圳市罗湖区桂园路一号六层综合楼1号一楼102（桂园路5号-7号）", "city": "深圳"}}, {"type": "Feature", "id": 5909, "geometry": {"type": "Point", "coordinates": [114.1095545, 22.5445461]}, "properties": {"id": 5909, "name": "全家金融中心店", "chain_slug": "family-mart", "category_slug": "supermarket", "address": "深圳市罗湖区深南东路4003号世界金融中心裙楼C101-1单元", "city": "深圳"}}, {"type": "Feature", "id": 5910, "geometry": {"type": "Point", "coordinates": [113.9688565, 22.9593003]}, "properties": {"id": 5910, "name": "全家北站一店", "chain_slug": "family-mart", "category_slug": "supermarket", "address": "深圳市龙华新区民治街道深圳北站深1F-33", "city": "深圳"}}, {"type": "Feature", "id": 5911, "geometry": {"type": "Point", "coordinates": [113.917667, 22.5807117]}, "properties": {"id": 5911, "name": "全家庭威店", "chain_slug": "family-mart", "category_slug": "supermarket", "address": "深圳市宝安区67区留芳路6号庭威工业区贰栋一楼003#", "city": "深圳"}}, {"type": "Feature", "id": 5912, "geometry": {"type": "Point", "coordinates": [113.8806247, 22.584899]}, "properties": {"id": 5912, "name": "全家泰华店", "chain_slug": "family-mart", "category_slug": "supermarket", "address": "深圳市宝安区西乡街道流塘路西北侧泰华明珠1栋1至3层（1层120号铺）", "city": "深圳"}}, {"type": "Feature", "id": 5913, "geometry": {"type": "Point", "coordinates": [113.9194246, 22.5153536]}, "properties": {"id": 5913, "name": "全家公园道店", "chain_slug": "family-mart", "category_slug": "supermarket", "address": "深圳市南山区登良路26号公园道店铺（B01层07号）", "city": "深圳"}}, {"type": "Feature", "id": 5914, "geometry": {"type": "Point", "coordinates": [114.0539961, 22.5377446]}, "properties": {"id": 5914, "name": "全家连城新天地店", "chain_slug": "family-mart", "category_slug": "supermarket", "address": "深圳市福田区深圳地铁一期工程岗会区间连城新天地商业街A010A号", "city": "深圳"}}, {"type": "Feature", "id": 5915, "geometry": {"type": "Point", "coordinates": [114.05695, 22.5385697]}, "properties": {"id": 5915, "name": "全家大中华交易广场店", "chain_slug": "family-mart", "category_slug": "supermarket", "address": "福田区深南路的大中华国际交易广场一楼L1-10", "city": "东莞"}}, {"type": "Feature", "id": 5916, "geometry": {"type": "Point", "coordinates": [114.043251, 22.5455378]}, "properties": {"id": 5916, "name": "全家英龙商务中心店", "chain_slug": "family-mart", "category_slug": "supermarket", "address": "深圳市福田区新闻路2号英龙商务中心", "city": "深圳"}}, {"type": "Feature", "id": 5917, "geometry": {"type": "Point", "coordinates": [114.0174256, 22.5374882]}, "properties": {"id": 5917, "name": "全家英龙大厦店", "chain_slug": "family-mart", "category_slug": "supermarket", "address": "福田区深南大道6025号英龙展业大厦一楼101", "city": "东莞"}}, {"type": "Feature", "id": 5918, "geometry": {"type": "Point", "coordinates": [113.9388099, 22.513066]}, "properties": {"id": 5918, "name": "全家阿里云大厦店", "chain_slug": "family-mart", "category_slug": "supermarket", "address": "深圳市南山区粤海街道科苑大道与登良路交汇阿里云大厦一层23号", "city": "深圳"}}, {"type": "Feature", "id": 5919, "geometry": {"type": "Point", "coordinates": [113.9403235, 22.5842881]}, "properties": {"id": 5919, "name": "全家悦方广场店", "chain_slug": "family-mart", "category_slug": "supermarket", "address": "深圳市南山区留仙大道2188号天悦湾花园悦方广场一楼层L114号", "city": "深圳"}}, {"type": "Feature", "id": 5920, "geometry": {"type": "Point", "coordinates": [113.9147469, 22.5127489]}, "properties": {"id": 5920, "name": "全家永新汇店", "chain_slug": "family-mart", "category_slug": "supermarket", "address": "深圳市南山区南山街道东滨路4078号永新汇之1栋1层", "city": "深圳"}}, {"type": "Feature", "id": 5921, "geometry": {"type": "Point", "coordinates": [114.0598669, 22.5441038]}, "properties": {"id": 5921, "name": "全家凤凰大厦店", "chain_slug": "family-mart", "category_slug": "supermarket", "address": "深圳市福田区深南大道2008号中国凤凰大厦3栋首层", "city": "深圳"}}, {"type": "Feature", "id": 5922, "geometry": {"type": "Point", "coordinates": [114.0574806, 22.5369979]}, "properties": {"id": 5922, "name": "全家现代商务大厦店", "chain_slug": "family-mart", "category_slug": "supermarket", "address": "深圳市福田区金田路与福华路交汇处现代商务大厦105B", "city": "深圳"}}, {"type": "Feature", "id": 5923, "geometry": {"type": "Point", "coordinates": [114.0130954, 22.5432243]}, "properties": {"id": 5923, "name": "全家地铁农林站店", "chain_slug": "family-mart", "category_slug": "supermarket", "address": "深圳市福田区香蜜湖街道深圳地铁7号线农林站S07-NL-AD-01商铺", "city": "深圳"}}, {"type": "Feature", "id": 5924, "geometry": {"type": "Point", "coordinates": [114.0560154, 22.5307576]}, "properties": {"id": 5924, "name": "全家地铁皇岗村站店", "chain_slug": "family-mart", "category_slug": "supermarket", "address": "深圳市福田区街道深圳地铁7号线皇岗村站S07-WGC-5-01商铺", "city": "深圳"}}, {"type": "Feature", "id": 5925, "geometry": {"type": "Point", "coordinates": [113.9199151, 22.5354363]}, "properties": {"id": 5925, "name": "全家地铁沙尾站店", "chain_slug": "family-mart", "category_slug": "supermarket", "address": "深圳市福田区沙头街道深圳地铁7号线沙尾站S07-SW-3-01商铺", "city": "深圳"}}, {"type": "Feature", "id": 5926, "geometry": {"type": "Point", "coordinates": [114.1033397, 22.5535089]}, "properties": {"id": 5926, "name": "全家红桂路店", "chain_slug": "family-mart", "category_slug": "supermarket", "address": "深圳市罗湖区桂园街道红桂路金众经典家园金茗阁裙楼1B", "city": "深圳"}}, {"type": "Feature", "id": 5927, "geometry": {"type": "Point", "coordinates": [113.9186864, 22.4895836]}, "properties": {"id": 5927, "name": "全家海昌街店", "chain_slug": "family-mart", "category_slug": "supermarket", "address": "深圳市南山区蛇口街道海昌街海广场丰华阁、丰盛阁裙楼110", "city": "深圳"}}, {"type": "Feature", "id": 5928, "geometry": {"type": "Point", "coordinates": [114.4786006, 22.5952102]}, "properties": {"id": 5928, "name": "全家华港大厦店", "chain_slug": "family-mart", "category_slug": "supermarket", "address": "广州市天河中山大道140号华港商务大厦首层", "city": "广州"}}, {"type": "Feature", "id": 5929, "geometry": {"type": "Point", "coordinates": [114.1076322, 22.5690688]}, "properties": {"id": 5929, "name": "全家宝岗店", "chain_slug": "family-mart", "category_slug": "supermarket", "address": "广州市海珠区宝岗大道140号", "city": "广州"}}, {"type": "Feature", "id": 5930, "geometry": {"type": "Point", "coordinates": [113.2512244, 23.0881878]}, "properties": {"id": 5930, "name": "全家榕景路店", "chain_slug": "family-mart", "category_slug": "supermarket", "address": "海珠区榕景路24号首层", "city": "深圳"}}, {"type": "Feature", "id": 5931, "geometry": {"type": "Point", "coordinates": [113.3241402, 23.1254215]}, "properties": {"id": 5931, "name": "全家金穗路店", "chain_slug": "family-mart", "category_slug": "supermarket", "address": "天河区珠江新城金穗路70号103铺（保利心语花园）", "city": "深圳"}}, {"type": "Feature", "id": 5932, "geometry": {"type": "Point", "coordinates": [113.9649806, 22.5447129]}, "properties": {"id": 5932, "name": "全家天河路二店", "chain_slug": "family-mart", "category_slug": "supermarket", "address": "天河区天河路236号广梅汕铁路大厦一楼自编A02", "city": "深圳"}}, {"type": "Feature", "id": 5933, "geometry": {"type": "Point", "coordinates": [113.2653219, 23.1249263]}, "properties": {"id": 5933, "name": "全家北京路店", "chain_slug": "family-mart", "category_slug": "supermarket", "address": "北京路238号名盛广场首层1B53", "city": "深圳"}}, {"type": "Feature", "id": 5934, "geometry": {"type": "Point", "coordinates": [113.9649806, 22.5447129]}, "properties": {"id": 5934, "name": "全家万菱汇大厦店", "chain_slug": "family-mart", "category_slug": "supermarket", "address": "天河区天河路230、232号B1层77号铺", "city": "深圳"}}, {"type": "Feature", "id": 5935, "geometry": {"type": "Point", "coordinates": [114.2344057, 22.6960829]}, "properties": {"id": 5935, "name": "全家奥林匹克花园店", "chain_slug": "family-mart", "category_slug": "supermarket", "address": "番禺区如意路34号", "city": "深圳"}}, {"type": "Feature", "id": 5936, "geometry": {"type": "Point", "coordinates": [113.2772626, 23.1412741]}, "properties": {"id": 5936, "name": "全家广东国际大厦店", "chain_slug": "family-mart", "category_slug": "supermarket", "address": "越秀区环市东路339号裙楼05商铺", "city": "越秀区环"}}, {"type": "Feature", "id": 5937, "geometry": {"type": "Point", "coordinates": [113.3251745, 23.1641102]}, "properties": {"id": 5937, "name": "全家燕岭路店", "chain_slug": "family-mart", "category_slug": "supermarket", "address": "天河区燕岭路202号东侧B栋临建商铺105、106号", "city": "深圳"}}, {"type": "Feature", "id": 5938, "geometry": {"type": "Point", "coordinates": [113.4642202, 23.1073149]}, "properties": {"id": 5938, "name": "全家石化路店", "chain_slug": "family-mart", "category_slug": "supermarket", "address": "黄埔区石化路文冲街168号之一", "city": "深圳"}}, {"type": "Feature", "id": 5939, "geometry": {"type": "Point", "coordinates": [113.2646834, 22.9917883]}, "properties": {"id": 5939, "name": "全家火车南站四店", "chain_slug": "family-mart", "category_slug": "supermarket", "address": "广州市番禺区石壁街广州南站出站层广1-118号", "city": "广州"}}, {"type": "Feature", "id": 5940, "geometry": {"type": "Point", "coordinates": [113.3088573, 23.1433382]}, "properties": {"id": 5940, "name": "全家新达城广场店", "chain_slug": "family-mart", "category_slug": "supermarket", "address": "天河区广州大道北195号首层102单元", "city": "天河区广州"}}, {"type": "Feature", "id": 5941, "geometry": {"type": "Point", "coordinates": [113.3561454, 22.9485764]}, "properties": {"id": 5941, "name": "全家光明北路店", "chain_slug": "family-mart", "category_slug": "supermarket", "address": "番禺区市桥星海中学光明北路234号", "city": "番禺区"}}, {"type": "Feature", "id": 5942, "geometry": {"type": "Point", "coordinates": [113.2322906, 23.1398946]}, "properties": {"id": 5942, "name": "全家西场分店", "chain_slug": "family-mart", "category_slug": "supermarket", "address": "广州市荔湾区东风西路94号", "city": "广州"}}, {"type": "Feature", "id": 5943, "geometry": {"type": "Point", "coordinates": [114.0002729, 22.6388384]}, "properties": {"id": 5943, "name": "全家时代玫瑰园店", "chain_slug": "family-mart", "category_slug": "supermarket", "address": "广州市白云区黄边北路向荣街310号101铺", "city": "广州"}}, {"type": "Feature", "id": 5944, "geometry": {"type": "Point", "coordinates": [113.3291858, 23.1270242]}, "properties": {"id": 5944, "name": "全家丹顿大厦店", "chain_slug": "family-mart", "category_slug": "supermarket", "address": "天河区珠江新城海安路2号6号铺", "city": "深圳"}}, {"type": "Feature", "id": 5945, "geometry": {"type": "Point", "coordinates": [113.2773788, 23.1204174]}, "properties": {"id": 5945, "name": "全家白云路店", "chain_slug": "family-mart", "category_slug": "supermarket", "address": "越秀区白云路18号首层第临街1号商铺", "city": "深圳"}}, {"type": "Feature", "id": 5946, "geometry": {"type": "Point", "coordinates": [113.283625, 23.1345888]}, "properties": {"id": 5946, "name": "全家广泰食品商店", "chain_slug": "family-mart", "category_slug": "supermarket", "address": "广州市越秀区先烈南路21号之一东侧之二铺", "city": "广州"}}, {"type": "Feature", "id": 5947, "geometry": {"type": "Point", "coordinates": [113.3192727, 23.1334985]}, "properties": {"id": 5947, "name": "全家天河南一路店", "chain_slug": "family-mart", "category_slug": "supermarket", "address": "天河南一路80号102自编之一", "city": "深圳"}}, {"type": "Feature", "id": 5948, "geometry": {"type": "Point", "coordinates": [113.4060976, 23.1277007]}, "properties": {"id": 5948, "name": "全家火车东站二店", "chain_slug": "family-mart", "category_slug": "supermarket", "address": "广州市天河区火车东站自编01号综合楼一楼广场中庭区域A68", "city": "广州"}}, {"type": "Feature", "id": 5949, "geometry": {"type": "Point", "coordinates": [113.4060976, 23.1277007]}, "properties": {"id": 5949, "name": "全家火车东站三店", "chain_slug": "family-mart", "category_slug": "supermarket", "address": "广州市天河区火车东站自编01号综合楼一楼广场中庭区域A88", "city": "广州"}}, {"type": "Feature", "id": 5950, "geometry": {"type": "Point", "coordinates": [113.833887, 22.7158546]}, "properties": {"id": 5950, "name": "全家星辰大厦店", "chain_slug": "family-mart", "category_slug": "supermarket", "address": "天河区华利路57号星辰大厦11号铺", "city": "深圳"}}, {"type": "Feature", "id": 5951, "geometry": {"type": "Point", "coordinates": [113.4315535, 23.170475]}, "properties": {"id": 5951, "name": "全家科汇店", "chain_slug": "family-mart", "category_slug": "supermarket", "address": "萝岗区科学大道中科汇4街6号107房", "city": "深圳"}}, {"type": "Feature", "id": 5952, "geometry": {"type": "Point", "coordinates": [113.2984022, 23.0439121]}, "properties": {"id": 5952, "name": "全家吉祥北店", "chain_slug": "family-mart", "category_slug": "supermarket", "address": "广州市番禺区洛浦街洛溪新城吉祥北街二幢二号", "city": "广州"}}, {"type": "Feature", "id": 5953, "geometry": {"type": "Point", "coordinates": [113.2736041, 23.1413631]}, "properties": {"id": 5953, "name": "全家裕华大厦店", "chain_slug": "family-mart", "category_slug": "supermarket", "address": "广州市越秀区环市东路32号（裕华大厦正门左边第四号铺）", "city": "广州"}}, {"type": "Feature", "id": 5954, "geometry": {"type": "Point", "coordinates": [113.3107509, 23.122633]}, "properties": {"id": 5954, "name": "全家花城大道店", "chain_slug": "family-mart", "category_slug": "supermarket", "address": "广州市天河区花城大道路3-7号A1-I号铺", "city": "广州"}}, {"type": "Feature", "id": 5955, "geometry": {"type": "Point", "coordinates": [113.3177794, 23.1683277]}, "properties": {"id": 5955, "name": "全家银利茶叶城店", "chain_slug": "family-mart", "category_slug": "supermarket", "address": "天河区沙太路银利街8号C1001、C1002房（银利茶叶城店内）", "city": "深圳"}}, {"type": "Feature", "id": 5956, "geometry": {"type": "Point", "coordinates": [114.1013043, 22.585193]}, "properties": {"id": 5956, "name": "全家雅居乐店", "chain_slug": "family-mart", "category_slug": "supermarket", "address": "广州市番禺区南村镇观景北路103号101房", "city": "广州"}}, {"type": "Feature", "id": 5957, "geometry": {"type": "Point", "coordinates": [113.3244001, 23.1193245]}, "properties": {"id": 5957, "name": "全家兴民路店", "chain_slug": "family-mart", "category_slug": "supermarket", "address": "广州市天河区兴民路208、210、212号", "city": "广州"}}, {"type": "Feature", "id": 5958, "geometry": {"type": "Point", "coordinates": [114.038021, 22.5405377]}, "properties": {"id": 5958, "name": "全家玫瑰路店", "chain_slug": "family-mart", "category_slug": "supermarket", "address": "广州市花都区玫瑰路17号A座101号铺", "city": "广州"}}, {"type": "Feature", "id": 5959, "geometry": {"type": "Point", "coordinates": [113.9589294, 22.5866207]}, "properties": {"id": 5959, "name": "全家商业大道店", "chain_slug": "family-mart", "category_slug": "supermarket", "address": "广州市花都区商业大道路37号102室", "city": "广州"}}, {"type": "Feature", "id": 5960, "geometry": {"type": "Point", "coordinates": [113.289705, 23.1257567]}, "properties": {"id": 5960, "name": "全家署前路二店", "chain_slug": "family-mart", "category_slug": "supermarket", "address": "广州市越秀区署前路33号1号楼自编103-2房", "city": "广州"}}, {"type": "Feature", "id": 5961, "geometry": {"type": "Point", "coordinates": [113.8391186, 22.7176616]}, "properties": {"id": 5961, "name": "全家凯利店", "chain_slug": "family-mart", "category_slug": "supermarket", "address": "广州市天河区黄埔大道872号凯利大厦首层106室", "city": "广州"}}, {"type": "Feature", "id": 5962, "geometry": {"type": "Point", "coordinates": [113.2372478, 23.1444816]}, "properties": {"id": 5962, "name": "全家地铁西村站店", "chain_slug": "family-mart", "category_slug": "supermarket", "address": "广州市越荔湾区地铁五号线西村站店内XC-5-9S铺", "city": "广州"}}, {"type": "Feature", "id": 5963, "geometry": {"type": "Point", "coordinates": [113.2617335, 23.1313482]}, "properties": {"id": 5963, "name": "全家地铁火车站店", "chain_slug": "family-mart", "category_slug": "supermarket", "address": "广州市越秀区地铁五号线火车站店内GZHCZ-5-6S铺", "city": "广州"}}, {"type": "Feature", "id": 5964, "geometry": {"type": "Point", "coordinates": [113.2617335, 23.1313482]}, "properties": {"id": 5964, "name": "全家地铁小北站店", "chain_slug": "family-mart", "category_slug": "supermarket", "address": "广州市越秀区地铁五号线小北站内XB-5-13铺", "city": "广州"}}, {"type": "Feature", "id": 5965, "geometry": {"type": "Point", "coordinates": [113.3959484, 23.1120611]}, "properties": {"id": 5965, "name": "全家地铁东圃站店", "chain_slug": "family-mart", "category_slug": "supermarket", "address": "广州市天河区地铁五号线东圃站店内DP-5-2S铺", "city": "广州"}}, {"type": "Feature", "id": 5966, "geometry": {"type": "Point", "coordinates": [113.2992508, 23.380446]}, "properties": {"id": 5966, "name": "全家机场二店", "chain_slug": "family-mart", "category_slug": "supermarket", "address": "广州花都区白云国际机场候机楼商铺编号C9007", "city": "深圳"}}, {"type": "Feature", "id": 5967, "geometry": {"type": "Point", "coordinates": [114.0576414, 22.5370377]}, "properties": {"id": 5967, "name": "全家高高新天地店", "chain_slug": "family-mart", "category_slug": "supermarket", "address": "广州市番禺区GOGO新天地二期一楼", "city": "广州"}}, {"type": "Feature", "id": 5968, "geometry": {"type": "Point", "coordinates": [113.2644906, 22.9915056]}, "properties": {"id": 5968, "name": "全家火车南站八店", "chain_slug": "family-mart", "category_slug": "supermarket", "address": "广州市番禺区广州南站出站层广1-108", "city": "广州"}}, {"type": "Feature", "id": 5969, "geometry": {"type": "Point", "coordinates": [113.2644906, 22.9915056]}, "properties": {"id": 5969, "name": "全家火车南站九店", "chain_slug": "family-mart", "category_slug": "supermarket", "address": "广州市番禺区广州南站出站层广1-111", "city": "广州"}}, {"type": "Feature", "id": 5970, "geometry": {"type": "Point", "coordinates": [113.2954705, 23.1343471]}, "properties": {"id": 5970, "name": "全家东风东路二店", "chain_slug": "family-mart", "category_slug": "supermarket", "address": "广州市越秀区东风东路733号E102", "city": "广州"}}, {"type": "Feature", "id": 5971, "geometry": {"type": "Point", "coordinates": [113.3850024, 23.0681295]}, "properties": {"id": 5971, "name": "全家外环东路店", "chain_slug": "family-mart", "category_slug": "supermarket", "address": "番禺区中山大学8栋", "city": "深圳"}}, {"type": "Feature", "id": 5972, "geometry": {"type": "Point", "coordinates": [113.2300174, 23.099415]}, "properties": {"id": 5972, "name": "全家芳村万象城店", "chain_slug": "family-mart", "category_slug": "supermarket", "address": "广州市荔湾区地铁芳村站内及出口芳村万象商业街自编A1-2号商铺", "city": "广州"}}, {"type": "Feature", "id": 5973, "geometry": {"type": "Point", "coordinates": [113.824424, 22.679551]}, "properties": {"id": 5973, "name": "全家文明路店", "chain_slug": "family-mart", "category_slug": "supermarket", "address": "广州市越秀区文明路209号之一", "city": "广州"}}, {"type": "Feature", "id": 5974, "geometry": {"type": "Point", "coordinates": [113.3374317, 23.1207214]}, "properties": {"id": 5974, "name": "全家花城大道二店", "chain_slug": "family-mart", "category_slug": "supermarket", "address": "天河区花城大道667号美林基业大厦写字楼首层102A单元", "city": "深圳"}}, {"type": "Feature", "id": 5975, "geometry": {"type": "Point", "coordinates": [113.918051, 22.5466204]}, "properties": {"id": 5975, "name": "全家天河购物中心店", "chain_slug": "family-mart", "category_slug": "supermarket", "address": "天河区中山大道8号天河商贸大厦", "city": "深圳"}}, {"type": "Feature", "id": 5976, "geometry": {"type": "Point", "coordinates": [113.3208159, 23.1722334]}, "properties": {"id": 5976, "name": "全家沙太南路店", "chain_slug": "family-mart", "category_slug": "supermarket", "address": "广州市天河区沙太南路133号大院内A19档", "city": "广州"}}, {"type": "Feature", "id": 5977, "geometry": {"type": "Point", "coordinates": [113.286059, 23.1383889]}, "properties": {"id": 5977, "name": "全家电子大厦店", "chain_slug": "family-mart", "category_slug": "supermarket", "address": "广州市越秀区环市东路403号首层105B、C房", "city": "广州"}}, {"type": "Feature", "id": 5978, "geometry": {"type": "Point", "coordinates": [113.3421363, 23.0107356]}, "properties": {"id": 5978, "name": "全家万博二路店", "chain_slug": "family-mart", "category_slug": "supermarket", "address": "广州市番禺区南村镇兴南大道万博二路B1栋069铺", "city": "广州"}}, {"type": "Feature", "id": 5979, "geometry": {"type": "Point", "coordinates": [113.325365, 23.1363597]}, "properties": {"id": 5979, "name": "全家地铁石牌桥站店", "chain_slug": "family-mart", "category_slug": "supermarket", "address": "广州市天河区广州地铁三号线石牌桥站SPQ-3-3S、4S号铺", "city": "广州"}}, {"type": "Feature", "id": 5980, "geometry": {"type": "Point", "coordinates": [113.8372248, 22.9028591]}, "properties": {"id": 5980, "name": "全家大岭山服务区1店", "chain_slug": "family-mart", "category_slug": "supermarket", "address": "东莞市大岭山镇区虎岗高速路大岭山北服务区服务楼一楼楼梯口旁", "city": "东莞"}}, {"type": "Feature", "id": 5981, "geometry": {"type": "Point", "coordinates": [113.8372248, 22.9028591]}, "properties": {"id": 5981, "name": "全家大岭山服务区2店", "chain_slug": "family-mart", "category_slug": "supermarket", "address": "东莞市大岭山镇区虎岗高速路大岭山南服务区服务楼一楼楼梯口旁", "city": "东莞"}}, {"type": "Feature", "id": 5982, "geometry": {"type": "Point", "coordinates": [113.8886887, 22.9336859]}, "properties": {"id": 5982, "name": "全家沁园路店", "chain_slug": "family-mart", "category_slug": "supermarket", "address": "广东省东莞市松山湖高新技术产业开发区创新科技园控股大厦入口购物亭", "city": "广东省东莞"}}, {"type": "Feature", "id": 5983, "geometry": {"type": "Point", "coordinates": [113.8338809, 22.9040055]}, "properties": {"id": 5983, "name": "全家大岭山广场路店", "chain_slug": "family-mart", "category_slug": "supermarket", "address": "东莞市大岭山镇教育路1号首层A01", "city": "东莞"}}, {"type": "Feature", "id": 5984, "geometry": {"type": "Point", "coordinates": [113.6670947, 22.8195687]}, "properties": {"id": 5984, "name": "全家永安路店", "chain_slug": "family-mart", "category_slug": "supermarket", "address": "东莞市虎门镇太沙路125号（皇城大厦）A6号地铺", "city": "东莞"}}, {"type": "Feature", "id": 5985, "geometry": {"type": "Point", "coordinates": [113.8688441, 22.9318299]}, "properties": {"id": 5985, "name": "全家广医一店", "chain_slug": "family-mart", "category_slug": "supermarket", "address": "东莞市松山湖广东医学院新城大道7号路教师公寓1栋", "city": "东莞"}}, {"type": "Feature", "id": 5986, "geometry": {"type": "Point", "coordinates": [113.835004, 22.9782792]}, "properties": {"id": 5986, "name": "全家城市学院店", "chain_slug": "family-mart", "category_slug": "supermarket", "address": "东莞市寮步镇小坑村文昌路1号东莞理工学院城市学院学8号楼G6-G7号商铺", "city": "东莞"}}, {"type": "Feature", "id": 5987, "geometry": {"type": "Point", "coordinates": [113.326464, 23.1467415]}, "properties": {"id": 5987, "name": "全家天寿路店", "chain_slug": "family-mart", "category_slug": "supermarket", "address": "天河区天寿路29号10号铺", "city": "深圳"}}, {"type": "Feature", "id": 5988, "geometry": {"type": "Point", "coordinates": [113.3181219, 23.1512737]}, "properties": {"id": 5988, "name": "全家中汇广场店", "chain_slug": "family-mart", "category_slug": "supermarket", "address": "广州市天河区林和西路153-157号保利中汇广场写字楼一层105-106铺", "city": "广州"}}, {"type": "Feature", "id": 5989, "geometry": {"type": "Point", "coordinates": [114.4255898, 22.6376352]}, "properties": {"id": 5989, "name": "全家盈力大厦店", "chain_slug": "family-mart", "category_slug": "supermarket", "address": "广州市天河区华强路3号103室", "city": "广州"}}, {"type": "Feature", "id": 5990, "geometry": {"type": "Point", "coordinates": [114.1138927, 22.551081]}, "properties": {"id": 5990, "name": "全家东兴大厦店", "chain_slug": "family-mart", "category_slug": "supermarket", "address": "广州市越秀区环市东路东兴大厦", "city": "广州"}}, {"type": "Feature", "id": 5991, "geometry": {"type": "Point", "coordinates": [114.1150722, 22.5580704]}, "properties": {"id": 5991, "name": "全家便利店（洪湖大厦店）", "chain_slug": "family-mart", "category_slug": "supermarket", "address": "深圳市罗湖区人民北路洪湖大厦一楼商铺3121号", "city": "深圳"}}, {"type": "Feature", "id": 5992, "geometry": {"type": "Point", "coordinates": [113.3158584, 23.1387139]}, "properties": {"id": 5992, "name": "全家建和店", "chain_slug": "family-mart", "category_slug": "supermarket", "address": "广东省广州市天河体育西路111-115号一楼A部", "city": "广东省广州"}}, {"type": "Feature", "id": 5993, "geometry": {"type": "Point", "coordinates": [113.3114753, 23.1253576]}, "properties": {"id": 5993, "name": "全家华普店", "chain_slug": "family-mart", "category_slug": "supermarket", "address": "广东省广州市天河区华明路13号首层9号铺", "city": "广东省广州"}}, {"type": "Feature", "id": 5994, "geometry": {"type": "Point", "coordinates": [113.2502979, 23.1446819]}, "properties": {"id": 5994, "name": "全家同人店", "chain_slug": "family-mart", "category_slug": "supermarket", "address": "越秀区流花路111号之八(自编E\\F\\G铺）", "city": "广州"}}, {"type": "Feature", "id": 5995, "geometry": {"type": "Point", "coordinates": [113.2761171, 23.0951663]}, "properties": {"id": 5995, "name": "全家晓港店", "chain_slug": "family-mart", "category_slug": "supermarket", "address": "广东省广州市海珠区昌岗东路268号晓港雅筑首层", "city": "广东省广州"}}, {"type": "Feature", "id": 5996, "geometry": {"type": "Point", "coordinates": [113.2680407, 23.0898086]}, "properties": {"id": 5996, "name": "全家昌岗店", "chain_slug": "family-mart", "category_slug": "supermarket", "address": "海珠区昌岗中路侨苑一街19-21首层", "city": "广州"}}, {"type": "Feature", "id": 5997, "geometry": {"type": "Point", "coordinates": [113.2613953, 23.1239544]}, "properties": {"id": 5997, "name": "全家惠福东店", "chain_slug": "family-mart", "category_slug": "supermarket", "address": "广东省广州市越秀区惠福东路455号景腾大厦首层101铺", "city": "广东省广州"}}, {"type": "Feature", "id": 5998, "geometry": {"type": "Point", "coordinates": [113.3337988, 23.1368166]}, "properties": {"id": 5998, "name": "全家百脑汇店", "chain_slug": "family-mart", "category_slug": "supermarket", "address": "广州市天河区天河路598号101室", "city": "广州"}}, {"type": "Feature", "id": 5999, "geometry": {"type": "Point", "coordinates": [113.9951878, 22.5930051]}, "properties": {"id": 5999, "name": "全家坂田站店", "chain_slug": "family-mart", "category_slug": "supermarket", "address": "深圳地铁环中线坂田站BTS01-01商铺", "city": "深圳"}}, {"type": "Feature", "id": 6000, "geometry": {"type": "Point", "coordinates": [114.040849, 22.5598939]}, "properties": {"id": 6000, "name": "全家便利店（景鹏大厦店）", "chain_slug": "family-mart", "category_slug": "supermarket", "address": "深圳市福田区景田住宅区景鹏大厦4栋一层2号", "city": "深圳"}}, {"type": "Feature", "id": 6001, "geometry": {"type": "Point", "coordinates": [113.320504, 23.1504984]}, "properties": {"id": 6001, "name": "全家建国店", "chain_slug": "family-mart", "category_slug": "supermarket", "address": "广东省广州市天河区林和中路172号", "city": "广东省广州"}}, {"type": "Feature", "id": 6002, "geometry": {"type": "Point", "coordinates": [113.3164469, 23.099108]}, "properties": {"id": 6002, "name": "全家客村店", "chain_slug": "family-mart", "category_slug": "supermarket", "address": "广东省广州市海珠区新港中路381号201号大楼自编5号", "city": "广东省广州"}}, {"type": "Feature", "id": 6003, "geometry": {"type": "Point", "coordinates": [113.3487768, 23.0904451]}, "properties": {"id": 6003, "name": "全家财经大学店", "chain_slug": "family-mart", "category_slug": "supermarket", "address": "广州市海珠区赤沙路21号广东财经大学第三食堂", "city": "广州"}}, {"type": "Feature", "id": 6004, "geometry": {"type": "Point", "coordinates": [113.3558767, 22.9504021]}, "properties": {"id": 6004, "name": "全家喜悦酒店店", "chain_slug": "family-mart", "category_slug": "supermarket", "address": "广州市番禺区光明北路223号", "city": "广州"}}, {"type": "Feature", "id": 6005, "geometry": {"type": "Point", "coordinates": [113.302071, 23.1225487]}, "properties": {"id": 6005, "name": "全家长城酒店店", "chain_slug": "family-mart", "category_slug": "supermarket", "address": "广东省广州市越秀区寺右新马路19号首层之二房", "city": "广东省广州"}}, {"type": "Feature", "id": 6006, "geometry": {"type": "Point", "coordinates": [113.2572969, 23.1268356]}, "properties": {"id": 6006, "name": "全家解放中路店", "chain_slug": "family-mart", "category_slug": "supermarket", "address": "广东省广州市越秀区解放中路462", "city": "广东省广州"}}, {"type": "Feature", "id": 6007, "geometry": {"type": "Point", "coordinates": [113.2416055, 23.1254361]}, "properties": {"id": 6007, "name": "全家康王店", "chain_slug": "family-mart", "category_slug": "supermarket", "address": "广东省广州市荔湾区带河路241", "city": "广东省广州"}}, {"type": "Feature", "id": 6008, "geometry": {"type": "Point", "coordinates": [113.2105813, 23.4111118]}, "properties": {"id": 6008, "name": "全家玫瑰路店", "chain_slug": "family-mart", "category_slug": "supermarket", "address": "广东省广州市花都区玫瑰路17号A座101号铺", "city": "广东省广州"}}, {"type": "Feature", "id": 6009, "geometry": {"type": "Point", "coordinates": [113.289705, 23.1257567]}, "properties": {"id": 6009, "name": "全家署前二店", "chain_slug": "family-mart", "category_slug": "supermarket", "address": "广州市越秀区署前路33号1号楼自编103-2房", "city": "广州"}}, {"type": "Feature", "id": 6010, "geometry": {"type": "Point", "coordinates": [113.3661827, 23.1059337]}, "properties": {"id": 6010, "name": "全家保利国际店", "chain_slug": "family-mart", "category_slug": "supermarket", "address": "广东省广州市海珠区阅江中路686保利国际广场西馆展览中心首层C105", "city": "广东省广州"}}, {"type": "Feature", "id": 6011, "geometry": {"type": "Point", "coordinates": [114.0252121, 22.5381787]}, "properties": {"id": 6011, "name": "全家便利店（泰然路店）", "chain_slug": "family-mart", "category_slug": "supermarket", "address": "深圳市福田区车公庙工业区厂房301栋第1-6层一层8号", "city": "深圳"}}, {"type": "Feature", "id": 6012, "geometry": {"type": "Point", "coordinates": [114.1312664, 22.548805]}, "properties": {"id": 6012, "name": "全家黄贝岭站店", "chain_slug": "family-mart", "category_slug": "supermarket", "address": "深圳市罗湖区地铁环中线黄贝岭地铁站HBLS03-01商铺", "city": "深圳"}}, {"type": "Feature", "id": 6013, "geometry": {"type": "Point", "coordinates": [114.1351797, 22.5579719]}, "properties": {"id": 6013, "name": "全家怡景站店", "chain_slug": "family-mart", "category_slug": "supermarket", "address": "深圳地铁环中线怡景站YJS01-01铺", "city": "深圳"}}, {"type": "Feature", "id": 6014, "geometry": {"type": "Point", "coordinates": [114.1187991, 22.5670622]}, "properties": {"id": 6014, "name": "全家地铁洪湖站店", "chain_slug": "family-mart", "category_slug": "supermarket", "address": "深圳市罗湖区笋岗街道地铁7号线洪湖站201铺", "city": "深圳"}}, {"type": "Feature", "id": 6015, "geometry": {"type": "Point", "coordinates": [113.9255569, 22.5228893]}, "properties": {"id": 6015, "name": "全家便利店（南山茂业店）", "chain_slug": "family-mart", "category_slug": "supermarket", "address": "深圳市南山区粤海街道海德路茂业时代广场裙楼1层121", "city": "深圳"}}, {"type": "Feature", "id": 6016, "geometry": {"type": "Point", "coordinates": [114.0623744, 22.5372917]}, "properties": {"id": 6016, "name": "全家兆邦基大厦店", "chain_slug": "family-mart", "category_slug": "supermarket", "address": "深圳市福田区福田街道彩田路与福华路交叉路口西南角319号兆邦基大厦L1-04单元", "city": "深圳"}}, {"type": "Feature", "id": 6017, "geometry": {"type": "Point", "coordinates": [113.2484791, 23.1348971]}, "properties": {"id": 6017, "name": "全家东风西店", "chain_slug": "family-mart", "category_slug": "supermarket", "address": "越秀区东风西路158号首层136号", "city": "广州"}}, {"type": "Feature", "id": 6018, "geometry": {"type": "Point", "coordinates": [113.3232041, 23.1407251]}, "properties": {"id": 6018, "name": "全家金利来大厦分店", "chain_slug": "family-mart", "category_slug": "supermarket", "address": "广东省广州市天河区体育东路138号自编层第1层06号铺", "city": "广东省广州"}}, {"type": "Feature", "id": 6019, "geometry": {"type": "Point", "coordinates": [113.2503078, 23.0863787]}, "properties": {"id": 6019, "name": "全家革新店", "chain_slug": "family-mart", "category_slug": "supermarket", "address": "广东省广州市海珠区革新路206", "city": "广东省广州"}}, {"type": "Feature", "id": 6020, "geometry": {"type": "Point", "coordinates": [113.3128862, 23.1431788]}, "properties": {"id": 6020, "name": "全家天河北店", "chain_slug": "family-mart", "category_slug": "supermarket", "address": "广州市天河区天河北路76号首层", "city": "广州"}}, {"type": "Feature", "id": 6021, "geometry": {"type": "Point", "coordinates": [113.3397428, 23.1425244]}, "properties": {"id": 6021, "name": "全家五山店", "chain_slug": "family-mart", "category_slug": "supermarket", "address": "广东省广州市天河区五山路106首层内", "city": "广东省广州"}}, {"type": "Feature", "id": 6022, "geometry": {"type": "Point", "coordinates": [113.2829283, 23.1022799]}, "properties": {"id": 6022, "name": "全家建基店", "chain_slug": "family-mart", "category_slug": "supermarket", "address": "广东省广州市建基路98号首层之一", "city": "广东省广州"}}, {"type": "Feature", "id": 6023, "geometry": {"type": "Point", "coordinates": [113.2474258, 23.1276372]}, "properties": {"id": 6023, "name": "全家中七店", "chain_slug": "family-mart", "category_slug": "supermarket", "address": "广东省广州市荔湾区中山七路51号首层101铺", "city": "广东省广州"}}, {"type": "Feature", "id": 6024, "geometry": {"type": "Point", "coordinates": [113.309523, 23.099158]}, "properties": {"id": 6024, "name": "全家财智店", "chain_slug": "family-mart", "category_slug": "supermarket", "address": "广东省广州市大道南442-452号101号-1房号", "city": "广东省广州"}}, {"type": "Feature", "id": 6025, "geometry": {"type": "Point", "coordinates": [113.3528149, 23.1363928]}, "properties": {"id": 6025, "name": "全家华港店", "chain_slug": "family-mart", "category_slug": "supermarket", "address": "广东省广州市天河中山大道140号华港商务大厦首层", "city": "广东省广州"}}, {"type": "Feature", "id": 6026, "geometry": {"type": "Point", "coordinates": [113.2566288, 23.1043061]}, "properties": {"id": 6026, "name": "全家宝岗店", "chain_slug": "family-mart", "category_slug": "supermarket", "address": "广东省广州市海珠区宝岗大道140号", "city": "广东省广州"}}, {"type": "Feature", "id": 6027, "geometry": {"type": "Point", "coordinates": [113.283263, 23.0992907]}, "properties": {"id": 6027, "name": "全家怡乐店", "chain_slug": "family-mart", "category_slug": "supermarket", "address": "广东省广州市怡乐路70号大院B区101房自编105", "city": "广东省广州"}}, {"type": "Feature", "id": 6028, "geometry": {"type": "Point", "coordinates": [113.3063655, 23.1247612]}, "properties": {"id": 6028, "name": "全家东兴店", "chain_slug": "family-mart", "category_slug": "supermarket", "address": "广东省广州市越秀区东兴南路37号东兴新大厦首层", "city": "广东省广州"}}, {"type": "Feature", "id": 6029, "geometry": {"type": "Point", "coordinates": [113.3246483, 23.1243959]}, "properties": {"id": 6029, "name": "全家兴国路店", "chain_slug": "family-mart", "category_slug": "supermarket", "address": "广东省广州市天河区珠江新城兴国路保利心语花园(自编D到H栋裙楼栋)1层122房", "city": "广东省广州"}}, {"type": "Feature", "id": 6030, "geometry": {"type": "Point", "coordinates": [113.2697659, 23.0749793]}, "properties": {"id": 6030, "name": "全家工业大道中路店", "chain_slug": "family-mart", "category_slug": "supermarket", "address": "广东省广州市海珠区工业大道中保利花园400号17铺", "city": "广东省广州"}}, {"type": "Feature", "id": 6031, "geometry": {"type": "Point", "coordinates": [113.2425524, 23.1268856]}, "properties": {"id": 6031, "name": "全家康王中店", "chain_slug": "family-mart", "category_slug": "supermarket", "address": "广东省广州市荔湾区康王中路600号新光城市广场156号铺", "city": "广东省广州"}}, {"type": "Feature", "id": 6032, "geometry": {"type": "Point", "coordinates": [113.2512244, 23.0881878]}, "properties": {"id": 6032, "name": "全家榕景店", "chain_slug": "family-mart", "category_slug": "supermarket", "address": "海珠区榕景路24号首层", "city": "广州"}}, {"type": "Feature", "id": 6033, "geometry": {"type": "Point", "coordinates": [113.2437472, 23.1304172]}, "properties": {"id": 6033, "name": "全家光复北店", "chain_slug": "family-mart", "category_slug": "supermarket", "address": "荔湾区光复北路芦荻街74号", "city": "广州"}}, {"type": "Feature", "id": 6034, "geometry": {"type": "Point", "coordinates": [113.320018, 23.1517589]}, "properties": {"id": 6034, "name": "全家天河2店", "chain_slug": "family-mart", "category_slug": "supermarket", "address": "广东省广州市天河区天河路236号广梅汕铁路大厦一楼自编A02", "city": "广东省广州"}}, {"type": "Feature", "id": 6035, "geometry": {"type": "Point", "coordinates": [113.928409, 22.5205076]}, "properties": {"id": 6035, "name": "全家中洲中心店", "chain_slug": "family-mart", "category_slug": "supermarket", "address": "广东省深圳市南山区粤海街道海德一道88号中洲控股金融中心A座一楼美食城K2铺", "city": "广东省深圳"}}, {"type": "Feature", "id": 6036, "geometry": {"type": "Point", "coordinates": [113.2849497, 23.0956069]}, "properties": {"id": 6036, "name": "全家新港店", "chain_slug": "family-mart", "category_slug": "supermarket", "address": "广东省广州市海珠区新港西路91号首层之3", "city": "广东省广州"}}, {"type": "Feature", "id": 6037, "geometry": {"type": "Point", "coordinates": [114.0563467, 22.5366807]}, "properties": {"id": 6037, "name": "全家便利店（星河中心店）", "chain_slug": "family-mart", "category_slug": "supermarket", "address": "深圳市福田中心区福华三路星河发展中心酒店01：L1-05b", "city": "深圳"}}, {"type": "Feature", "id": 6038, "geometry": {"type": "Point", "coordinates": [114.05235, 22.5385084]}, "properties": {"id": 6038, "name": "全家便利店（嘉里店）", "chain_slug": "family-mart", "category_slug": "supermarket", "address": "深圳市福田区中心四路1号嘉里建设广场裙楼第一层05室", "city": "深圳"}}, {"type": "Feature", "id": 6039, "geometry": {"type": "Point", "coordinates": [113.9649806, 22.5447129]}, "properties": {"id": 6039, "name": "全家万菱汇店", "chain_slug": "family-mart", "category_slug": "supermarket", "address": "天河区天河路230、232号B1层77号铺", "city": "广州"}}, {"type": "Feature", "id": 6040, "geometry": {"type": "Point", "coordinates": [113.3120068, 23.0866276]}, "properties": {"id": 6040, "name": "全家奥林匹克店", "chain_slug": "family-mart", "category_slug": "supermarket", "address": "海珠区如意路34号", "city": "广州"}}, {"type": "Feature", "id": 6041, "geometry": {"type": "Point", "coordinates": [113.2621731, 23.1179164]}, "properties": {"id": 6041, "name": "全家侨光路店", "chain_slug": "family-mart", "category_slug": "supermarket", "address": "越秀区侨光路8号B/C座首层B/C-7/8号铺", "city": "广州"}}, {"type": "Feature", "id": 6042, "geometry": {"type": "Point", "coordinates": [113.3260664, 23.1235056]}, "properties": {"id": 6042, "name": "全家兴盛店", "chain_slug": "family-mart", "category_slug": "supermarket", "address": "天河区兴盛路街12号107、108号", "city": "广州"}}, {"type": "Feature", "id": 6043, "geometry": {"type": "Point", "coordinates": [113.3260664, 23.1235056]}, "properties": {"id": 6043, "name": "全家隽丰苑店", "chain_slug": "family-mart", "category_slug": "supermarket", "address": "天河区兴盛路街12号101、102号", "city": "广州"}}, {"type": "Feature", "id": 6044, "geometry": {"type": "Point", "coordinates": [113.3018376, 23.1496713]}, "properties": {"id": 6044, "name": "全家君华店", "chain_slug": "family-mart", "category_slug": "supermarket", "address": "广东省广州市越秀区先烈东路198号102室", "city": "广东省广州"}}, {"type": "Feature", "id": 6045, "geometry": {"type": "Point", "coordinates": [113.2911681, 23.2365231]}, "properties": {"id": 6045, "name": "全家岭南新世界二店", "chain_slug": "family-mart", "category_slug": "supermarket", "address": "广东省广州市白云区岭南新世界集善街21-67号(自编2C区12-15栋)首层65/67号", "city": "广东省广州"}}, {"type": "Feature", "id": 6046, "geometry": {"type": "Point", "coordinates": [113.2869661, 23.1306297]}, "properties": {"id": 6046, "name": "全家执信南店", "chain_slug": "family-mart", "category_slug": "supermarket", "address": "执信南路96号", "city": "广州"}}, {"type": "Feature", "id": 6047, "geometry": {"type": "Point", "coordinates": [113.2595447, 23.1828226]}, "properties": {"id": 6047, "name": "全家5号停机坪店", "chain_slug": "family-mart", "category_slug": "supermarket", "address": "广东省广州市白云区云霄路353栋5号停机坪购物广场1楼L1069N", "city": "广东省广州"}}, {"type": "Feature", "id": 6048, "geometry": {"type": "Point", "coordinates": [113.2644906, 22.9915056]}, "properties": {"id": 6048, "name": "全家南站1店", "chain_slug": "family-mart", "category_slug": "supermarket", "address": "番禺区广州南站高架候车层广2-17", "city": "番禺区广州"}}, {"type": "Feature", "id": 6049, "geometry": {"type": "Point", "coordinates": [113.2753039, 23.0839319]}, "properties": {"id": 6049, "name": "全家江燕路店", "chain_slug": "family-mart", "category_slug": "supermarket", "address": "广东省广州市江燕路南珠北街18号103（江泰广场首层自编10号）商铺", "city": "广东省广州"}}, {"type": "Feature", "id": 6050, "geometry": {"type": "Point", "coordinates": [113.2293562, 23.0823818]}, "properties": {"id": 6050, "name": "全家芳村客运站", "chain_slug": "family-mart", "category_slug": "supermarket", "address": "荔湾区花地大道中51号", "city": "广州"}}, {"type": "Feature", "id": 6051, "geometry": {"type": "Point", "coordinates": [113.2687704, 23.0979565]}, "properties": {"id": 6051, "name": "全家纺织路店", "chain_slug": "family-mart", "category_slug": "supermarket", "address": "广东省广州市海珠区纺织路1号中海名都一街1号3号C15铺", "city": "广东省广州"}}, {"type": "Feature", "id": 6052, "geometry": {"type": "Point", "coordinates": [113.3839498, 23.0996487]}, "properties": {"id": 6052, "name": "全家保利会展店", "chain_slug": "family-mart", "category_slug": "supermarket", "address": "海珠区新港东路1000号负一层（自编1号）", "city": "广州"}}, {"type": "Feature", "id": 6053, "geometry": {"type": "Point", "coordinates": [113.3180146, 23.1444196]}, "properties": {"id": 6053, "name": "全家国贸店", "chain_slug": "family-mart", "category_slug": "supermarket", "address": "林和西路1号110、114、115号铺", "city": "广州"}}, {"type": "Feature", "id": 6054, "geometry": {"type": "Point", "coordinates": [113.3172615, 23.1531336]}, "properties": {"id": 6054, "name": "全家中泰广场店", "chain_slug": "family-mart", "category_slug": "supermarket", "address": "广东省广州市天河区林和西路161号中泰国际广场北塔负1层02A铺", "city": "广东省广州"}}, {"type": "Feature", "id": 6055, "geometry": {"type": "Point", "coordinates": [113.4660905, 23.1739124]}, "properties": {"id": 6055, "name": "全家岭南医院店", "chain_slug": "family-mart", "category_slug": "supermarket", "address": "萝岗区开创大道2693号", "city": "广州"}}, {"type": "Feature", "id": 6056, "geometry": {"type": "Point", "coordinates": [113.283297, 23.1280349]}, "properties": {"id": 6056, "name": "全家中山二路二店", "chain_slug": "family-mart", "category_slug": "supermarket", "address": "越秀区中山二路51号102室", "city": "广州"}}, {"type": "Feature", "id": 6057, "geometry": {"type": "Point", "coordinates": [113.4100256, 23.121945]}, "properties": {"id": 6057, "name": "全家东圃店", "chain_slug": "family-mart", "category_slug": "supermarket", "address": "广州市天河区中山大道中1013号首层", "city": "广州"}}, {"type": "Feature", "id": 6058, "geometry": {"type": "Point", "coordinates": [113.2343004, 23.1243777]}, "properties": {"id": 6058, "name": "全家龙津店", "chain_slug": "family-mart", "category_slug": "supermarket", "address": "广州市龙津西路恩洲大巷207号101铺", "city": "广州"}}, {"type": "Feature", "id": 6059, "geometry": {"type": "Point", "coordinates": [113.2465635, 23.1348994]}, "properties": {"id": 6059, "name": "全家嘉禾苑店", "chain_slug": "family-mart", "category_slug": "supermarket", "address": "越秀区东风西路148-1号9铺", "city": "深圳"}}, {"type": "Feature", "id": 6060, "geometry": {"type": "Point", "coordinates": [113.3257437, 23.1581584]}, "properties": {"id": 6060, "name": "全家粤垦路二店", "chain_slug": "family-mart", "category_slug": "supermarket", "address": "广州市天河区粤垦路523号101之三铺", "city": "广州"}}, {"type": "Feature", "id": 6061, "geometry": {"type": "Point", "coordinates": [113.3829727, 23.122186]}, "properties": {"id": 6061, "name": "全家天朗明居店", "chain_slug": "family-mart", "category_slug": "supermarket", "address": "广东省广州市天河区东圃车陂路443号首层商铺", "city": "广东省广州"}}, {"type": "Feature", "id": 6062, "geometry": {"type": "Point", "coordinates": [113.3091668, 23.1409696]}, "properties": {"id": 6062, "name": "全家嘉诚公寓店", "chain_slug": "family-mart", "category_slug": "supermarket", "address": "广东省越秀区广州大道中路613号101", "city": "广东省越秀区广州"}}, {"type": "Feature", "id": 6063, "geometry": {"type": "Point", "coordinates": [113.2542142, 23.0875441]}, "properties": {"id": 6063, "name": "全家水榕路店", "chain_slug": "family-mart", "category_slug": "supermarket", "address": "广东省广州市海珠区水榕路154号101房", "city": "广东省广州"}}, {"type": "Feature", "id": 6064, "geometry": {"type": "Point", "coordinates": [113.2596072, 23.0989978]}, "properties": {"id": 6064, "name": "全家可逸豪苑店", "chain_slug": "family-mart", "category_slug": "supermarket", "address": "海珠区宝岗大道396号首层124,125室", "city": "广州"}}, {"type": "Feature", "id": 6065, "geometry": {"type": "Point", "coordinates": [113.21366, 23.1097952]}, "properties": {"id": 6065, "name": "全家芳村码头店", "chain_slug": "family-mart", "category_slug": "supermarket", "address": "广东省广州市荔湾区芳村码头路", "city": "广东省广州"}}, {"type": "Feature", "id": 6066, "geometry": {"type": "Point", "coordinates": [113.3693854, 23.0424369]}, "properties": {"id": 6066, "name": "全家广州大学城店", "chain_slug": "family-mart", "category_slug": "supermarket", "address": "广州市番禺区广州大学生活区竹苑11栋南面一楼架空层", "city": "广州"}}, {"type": "Feature", "id": 6067, "geometry": {"type": "Point", "coordinates": [113.330338, 23.1182726]}, "properties": {"id": 6067, "name": "全家海文路店", "chain_slug": "family-mart", "category_slug": "supermarket", "address": "广州市天河区珠江新城猎德村菜市场南面", "city": "广州"}}, {"type": "Feature", "id": 6068, "geometry": {"type": "Point", "coordinates": [113.310003, 23.1429932]}, "properties": {"id": 6068, "name": "全家广州大道中店", "chain_slug": "family-mart", "category_slug": "supermarket", "address": "天河区天河北路2号首层西侧", "city": "广州"}}, {"type": "Feature", "id": 6069, "geometry": {"type": "Point", "coordinates": [113.2989974, 23.1291854]}, "properties": {"id": 6069, "name": "全家梅花村店", "chain_slug": "family-mart", "category_slug": "supermarket", "address": "广东省广州市越秀区梅花村路4号101房", "city": "广东省广州"}}, {"type": "Feature", "id": 6070, "geometry": {"type": "Point", "coordinates": [113.2782348, 23.0735579]}, "properties": {"id": 6070, "name": "全家金城路店", "chain_slug": "family-mart", "category_slug": "supermarket", "address": "广东省广州市海珠区金诚路61号", "city": "广东省广州"}}, {"type": "Feature", "id": 6071, "geometry": {"type": "Point", "coordinates": [113.3352973, 23.1451215]}, "properties": {"id": 6071, "name": "全家天诚广场店", "chain_slug": "family-mart", "category_slug": "supermarket", "address": "广东省广州市天河区天诚广场1楼", "city": "广东省广州"}}, {"type": "Feature", "id": 6072, "geometry": {"type": "Point", "coordinates": [113.3386765, 23.1326103]}, "properties": {"id": 6072, "name": "全家新陶店", "chain_slug": "family-mart", "category_slug": "supermarket", "address": "广东省广州市天河区陶育路新陶北街5号2号铺", "city": "广东省广州"}}, {"type": "Feature", "id": 6073, "geometry": {"type": "Point", "coordinates": [113.2771057, 23.1281835]}, "properties": {"id": 6073, "name": "全家中华广场店", "chain_slug": "family-mart", "category_slug": "supermarket", "address": "广东省广州市越秀区中山三路33号商场首层南门2号铺", "city": "广东省广州"}}, {"type": "Feature", "id": 6074, "geometry": {"type": "Point", "coordinates": [113.272568, 23.1176158]}, "properties": {"id": 6074, "name": "全家江湾大厦店", "chain_slug": "family-mart", "category_slug": "supermarket", "address": "广东省广州市越秀区沿江中路298号一层", "city": "广东省广州"}}, {"type": "Feature", "id": 6075, "geometry": {"type": "Point", "coordinates": [113.2865277, 23.1328205]}, "properties": {"id": 6075, "name": "全家执信南2店", "chain_slug": "family-mart", "category_slug": "supermarket", "address": "广州市越秀区执信南路138号1室", "city": "广州"}}, {"type": "Feature", "id": 6076, "geometry": {"type": "Point", "coordinates": [113.3080277, 23.1174332]}, "properties": {"id": 6076, "name": "全家明月一路店", "chain_slug": "family-mart", "category_slug": "supermarket", "address": "广州市越秀区明月一路4、6号", "city": "广州"}}, {"type": "Feature", "id": 6077, "geometry": {"type": "Point", "coordinates": [113.3388142, 23.1183288]}, "properties": {"id": 6077, "name": "全家南国花园店", "chain_slug": "family-mart", "category_slug": "supermarket", "address": "天河区平月路南国一街17号106D房", "city": "深圳"}}, {"type": "Feature", "id": 6078, "geometry": {"type": "Point", "coordinates": [114.1046526, 22.5487129]}, "properties": {"id": 6078, "name": "全家翠城店", "chain_slug": "family-mart", "category_slug": "supermarket", "address": "海珠区宝岗大道翠城北街37号101铺位", "city": "深圳"}}, {"type": "Feature", "id": 6079, "geometry": {"type": "Point", "coordinates": [113.3560388, 23.136]}, "properties": {"id": 6079, "name": "全家中山大道店", "chain_slug": "family-mart", "category_slug": "supermarket", "address": "天河区中山大道西186号103、104铺", "city": "深圳"}}, {"type": "Feature", "id": 6080, "geometry": {"type": "Point", "coordinates": [113.3029743, 23.1374521]}, "properties": {"id": 6080, "name": "全家环市东路店", "chain_slug": "family-mart", "category_slug": "supermarket", "address": "环市东路503号首层自编西侧", "city": "深圳"}}, {"type": "Feature", "id": 6081, "geometry": {"type": "Point", "coordinates": [113.3260664, 23.1235056]}, "properties": {"id": 6081, "name": "全家兴盛路店", "chain_slug": "family-mart", "category_slug": "supermarket", "address": "天河区兴盛路街12号107、108号", "city": "深圳"}}, {"type": "Feature", "id": 6082, "geometry": {"type": "Point", "coordinates": [113.2644906, 22.9915056]}, "properties": {"id": 6082, "name": "全家火车南站一店", "chain_slug": "family-mart", "category_slug": "supermarket", "address": "番禺区广州南站高架候车层广2-17", "city": "番禺区广州"}}, {"type": "Feature", "id": 6083, "geometry": {"type": "Point", "coordinates": [113.839803, 22.7086082]}, "properties": {"id": 6083, "name": "全家东环路店", "chain_slug": "family-mart", "category_slug": "supermarket", "address": "越秀区东环路19号首层自编之一", "city": "深圳"}}, {"type": "Feature", "id": 6084, "geometry": {"type": "Point", "coordinates": [113.3180146, 23.1444196]}, "properties": {"id": 6084, "name": "全家国贸大厦店", "chain_slug": "family-mart", "category_slug": "supermarket", "address": "林和西路1号110、114、115号铺", "city": "深圳"}}, {"type": "Feature", "id": 6085, "geometry": {"type": "Point", "coordinates": [114.1634238, 22.7958217]}, "properties": {"id": 6085, "name": "全家立讯工厂店", "chain_slug": "family-mart", "category_slug": "supermarket", "address": "东莞市清溪镇青皇村青皇工业区葵青路17号", "city": "东莞"}}, {"type": "Feature", "id": 6086, "geometry": {"type": "Point", "coordinates": [113.7375768, 23.0228498]}, "properties": {"id": 6086, "name": "全家胜和广场店", "chain_slug": "family-mart", "category_slug": "supermarket", "address": "广东省东莞市南城街道胜和商住广场B座1楼06号", "city": "广东省东莞"}}, {"type": "Feature", "id": 6087, "geometry": {"type": "Point", "coordinates": [113.883483, 22.9556262]}, "properties": {"id": 6087, "name": "全家互联网产业园店", "chain_slug": "family-mart", "category_slug": "supermarket", "address": "东莞松山湖高新技术产业开发区工业西路14号互联网产业园3栋109", "city": "东莞"}}, {"type": "Feature", "id": 6088, "geometry": {"type": "Point", "coordinates": [113.3721407, 23.2150751]}, "properties": {"id": 6088, "name": "全家渔兴路店", "chain_slug": "family-mart", "category_slug": "supermarket", "address": "广州市天河区渔兴路41号121室", "city": "广州"}}, {"type": "Feature", "id": 6089, "geometry": {"type": "Point", "coordinates": [113.360967, 23.099356]}, "properties": {"id": 6089, "name": "全家保利世贸店", "chain_slug": "family-mart", "category_slug": "supermarket", "address": "广东省广州市海珠区新港东路1000号保利世界贸易中心三明公寓首层编号D101", "city": "广东省广州"}}, {"type": "Feature", "id": 6090, "geometry": {"type": "Point", "coordinates": [113.4513708, 23.1020444]}, "properties": {"id": 6090, "name": "全家黄埔花园店", "chain_slug": "family-mart", "category_slug": "supermarket", "address": "广州市黄埔区丰乐南路428号及432号101、102号铺", "city": "广州"}}, {"type": "Feature", "id": 6091, "geometry": {"type": "Point", "coordinates": [113.4024877, 23.1734855]}, "properties": {"id": 6091, "name": "全家软件路店", "chain_slug": "family-mart", "category_slug": "supermarket", "address": "广州市天河区软件路15号E栋101室", "city": "广州"}}, {"type": "Feature", "id": 6092, "geometry": {"type": "Point", "coordinates": [113.6678916, 22.8635015]}, "properties": {"id": 6092, "name": "全家高铁虎门店", "chain_slug": "family-mart", "category_slug": "supermarket", "address": "东莞市虎门镇白沙社区机场一路广深港客运专线虎门站候车区虎门-1商铺", "city": "东莞"}}, {"type": "Feature", "id": 6093, "geometry": {"type": "Point", "coordinates": [113.8403209, 22.8082791]}, "properties": {"id": 6093, "name": "全家燕塘大院店", "chain_slug": "family-mart", "category_slug": "supermarket", "address": "天河区燕塘路60号燕塘大院自编29栋1-2", "city": "深圳"}}, {"type": "Feature", "id": 6094, "geometry": {"type": "Point", "coordinates": [113.2488867, 23.1089476]}, "properties": {"id": 6094, "name": "全家鳌洲码头店", "chain_slug": "family-mart", "category_slug": "supermarket", "address": "广州市海珠区滨江路鳌洲码头自编右室", "city": "广州"}}, {"type": "Feature", "id": 6095, "geometry": {"type": "Point", "coordinates": [113.2561156, 23.1117153]}, "properties": {"id": 6095, "name": "全家堑口码头店", "chain_slug": "family-mart", "category_slug": "supermarket", "address": "广州市海珠区堑口码头", "city": "广州"}}, {"type": "Feature", "id": 6096, "geometry": {"type": "Point", "coordinates": [113.3693854, 23.0424369]}, "properties": {"id": 6096, "name": "全家广大店", "chain_slug": "family-mart", "category_slug": "supermarket", "address": "广州市番禺区广州大学生活区竹苑11栋南面一楼架空层", "city": "广州"}}, {"type": "Feature", "id": 6097, "geometry": {"type": "Point", "coordinates": [113.26968, 23.1343868]}, "properties": {"id": 6097, "name": "全家达信大厦店", "chain_slug": "family-mart", "category_slug": "supermarket", "address": "越秀区德政北路538号北向一层零零之二房", "city": "深圳"}}, {"type": "Feature", "id": 6098, "geometry": {"type": "Point", "coordinates": [113.2644906, 22.9915056]}, "properties": {"id": 6098, "name": "全家火车南站五店", "chain_slug": "family-mart", "category_slug": "supermarket", "address": "广州市番禺区广州南站出站区广1-113", "city": "广州"}}, {"type": "Feature", "id": 6099, "geometry": {"type": "Point", "coordinates": [114.1138048, 22.5482091]}, "properties": {"id": 6099, "name": "全家嘉年华店", "chain_slug": "family-mart", "category_slug": "supermarket", "address": "深圳市罗湖区晒布路嘉年华名苑A05、06", "city": "深圳"}}, {"type": "Feature", "id": 6100, "geometry": {"type": "Point", "coordinates": [114.0125578, 22.540922]}, "properties": {"id": 6100, "name": "全家鑫竹苑店", "chain_slug": "family-mart", "category_slug": "supermarket", "address": "深圳市福田区农林路鑫竹苑B、C栋裙楼首层8号", "city": "深圳"}}, {"type": "Feature", "id": 6101, "geometry": {"type": "Point", "coordinates": [114.0500888, 22.5236453]}, "properties": {"id": 6101, "name": "全家彩田路店", "chain_slug": "family-mart", "category_slug": "supermarket", "address": "深圳市福田区彩田路东方新天地广场群楼100-B", "city": "深圳"}}, {"type": "Feature", "id": 6102, "geometry": {"type": "Point", "coordinates": [113.7526004, 23.0576649]}, "properties": {"id": 6102, "name": "全家卓越前海壹号店", "chain_slug": "family-mart", "category_slug": "supermarket", "address": "深圳市南山区南山街道桂湾片区二单元卓越前海壹号负一层B1-01", "city": "深圳"}}, {"type": "Feature", "id": 6103, "geometry": {"type": "Point", "coordinates": [113.5754469, 23.0651795]}, "properties": {"id": 6103, "name": "全家新华学院店", "chain_slug": "family-mart", "category_slug": "supermarket", "address": "东莞市麻涌镇沿江西一路7号中山大学新华学院15栋首层", "city": "东莞"}}, {"type": "Feature", "id": 6104, "geometry": {"type": "Point", "coordinates": [113.5754469, 23.0651795]}, "properties": {"id": 6104, "name": "全家新华学院二店", "chain_slug": "family-mart", "category_slug": "supermarket", "address": "麻涌镇沿江西一路7号中山大学新华学院（麻涌校区）16号宿舍楼4号铺", "city": "东莞"}}, {"type": "Feature", "id": 6105, "geometry": {"type": "Point", "coordinates": [113.7549777, 23.0115515]}, "properties": {"id": 6105, "name": "全家台商大厦店", "chain_slug": "family-mart", "category_slug": "supermarket", "address": "广东省东莞市东城街道东莞大道11号君茂购物中心一层1-009B", "city": "广东省东莞"}}, {"type": "Feature", "id": 6106, "geometry": {"type": "Point", "coordinates": [113.6678916, 22.8635015]}, "properties": {"id": 6106, "name": "全家高铁虎门站店", "chain_slug": "family-mart", "category_slug": "supermarket", "address": "东莞市虎门镇白沙社区机场一路广深港客运专线虎门站候车区虎门-1商铺", "city": "东莞"}}, {"type": "Feature", "id": 6107, "geometry": {"type": "Point", "coordinates": [113.9141703, 22.4921135]}, "properties": {"id": 6107, "name": "全家太子路店", "chain_slug": "family-mart", "category_slug": "supermarket", "address": "深圳市南山区太子路111号深圳自贸中心一楼103", "city": "深圳"}}, {"type": "Feature", "id": 6108, "geometry": {"type": "Point", "coordinates": [113.9177987, 22.521903]}, "properties": {"id": 6108, "name": "全家南山大道店", "chain_slug": "family-mart", "category_slug": "supermarket", "address": "深圳市南山区粤海街道办南山大道南海城中心9栋1楼阁裙楼1B", "city": "深圳"}}, {"type": "Feature", "id": 6109, "geometry": {"type": "Point", "coordinates": [113.7285017, 22.8006372]}, "properties": {"id": 6109, "name": "全家华为基地店", "chain_slug": "family-mart", "category_slug": "supermarket", "address": "深圳市龙岗区坂田街道华为基地B3首层", "city": "深圳"}}, {"type": "Feature", "id": 6110, "geometry": {"type": "Point", "coordinates": [113.2733883, 23.142221]}, "properties": {"id": 6110, "name": "全家小北店", "chain_slug": "family-mart", "category_slug": "supermarket", "address": "广州市越秀区环市中路319号首层自编101商铺", "city": "广州"}}, {"type": "Feature", "id": 6111, "geometry": {"type": "Point", "coordinates": [113.2644906, 22.9915056]}, "properties": {"id": 6111, "name": "全家火车南站六店", "chain_slug": "family-mart", "category_slug": "supermarket", "address": "广州市番禺区广州南站出站层广1-107", "city": "广州"}}, {"type": "Feature", "id": 6112, "geometry": {"type": "Point", "coordinates": [113.2644906, 22.9915056]}, "properties": {"id": 6112, "name": "全家火车南站七店", "chain_slug": "family-mart", "category_slug": "supermarket", "address": "广州市番禺区广州南站出站层广1-109", "city": "广州"}}, {"type": "Feature", "id": 6113, "geometry": {"type": "Point", "coordinates": [113.4138599, 23.1811065]}, "properties": {"id": 6113, "name": "全家天慧路店", "chain_slug": "family-mart", "category_slug": "supermarket", "address": "广州市天河区天慧路12号1楼101室自编01铺", "city": "广州"}}, {"type": "Feature", "id": 6114, "geometry": {"type": "Point", "coordinates": [113.3515235, 23.1003425]}, "properties": {"id": 6114, "name": "全家南丰汇店", "chain_slug": "family-mart", "category_slug": "supermarket", "address": "广州市海珠区新港东路618号101房自编05号", "city": "广州"}}, {"type": "Feature", "id": 6115, "geometry": {"type": "Point", "coordinates": [113.3039755, 23.1352702]}, "properties": {"id": 6115, "name": "全家东风广场店", "chain_slug": "family-mart", "category_slug": "supermarket", "address": "广州市越秀区东风东路761号丽丰大厦首层106号铺", "city": "广州"}}, {"type": "Feature", "id": 6116, "geometry": {"type": "Point", "coordinates": [113.3147351, 23.1327944]}, "properties": {"id": 6116, "name": "全家广利路店", "chain_slug": "family-mart", "category_slug": "supermarket", "address": "广州市天河区广利路84号101铺", "city": "广州"}}, {"type": "Feature", "id": 6117, "geometry": {"type": "Point", "coordinates": [113.2992508, 23.380446]}, "properties": {"id": 6117, "name": "全家机场一店", "chain_slug": "family-mart", "category_slug": "supermarket", "address": "广州花都区白云国际机场候机楼商铺编号C9135", "city": "深圳"}}, {"type": "Feature", "id": 6118, "geometry": {"type": "Point", "coordinates": [113.2150077, 23.1204952]}, "properties": {"id": 6118, "name": "全家地铁坦尾店", "chain_slug": "family-mart", "category_slug": "supermarket", "address": "广州市荔湾区广州地铁五号线坦尾站TW-5-1S号", "city": "广州"}}, {"type": "Feature", "id": 6119, "geometry": {"type": "Point", "coordinates": [113.859984, 22.5578552]}, "properties": {"id": 6119, "name": "全家天文苑店", "chain_slug": "family-mart", "category_slug": "supermarket", "address": "广州市天河区体育西路107号盛雅商务中心A座一楼层A1单元", "city": "广州"}}, {"type": "Feature", "id": 6120, "geometry": {"type": "Point", "coordinates": [113.26616, 23.1269878]}, "properties": {"id": 6120, "name": "全家文德路店", "chain_slug": "family-mart", "category_slug": "supermarket", "address": "广州市越秀区文德北路146号首层北侧之一（自编号）", "city": "广州"}}, {"type": "Feature", "id": 6121, "geometry": {"type": "Point", "coordinates": [113.4354091, 23.3705235]}, "properties": {"id": 6121, "name": "全家财经大学三店", "chain_slug": "family-mart", "category_slug": "supermarket", "address": "广州市海珠区广东财经大学第二饭堂", "city": "广州"}}, {"type": "Feature", "id": 6122, "geometry": {"type": "Point", "coordinates": [113.280231, 23.1193254]}, "properties": {"id": 6122, "name": "全家大沙头店", "chain_slug": "family-mart", "category_slug": "supermarket", "address": "越秀区大沙头三马路东船栏17号101自编之一", "city": "深圳"}}, {"type": "Feature", "id": 6123, "geometry": {"type": "Point", "coordinates": [113.8857807, 22.7867774]}, "properties": {"id": 6123, "name": "全家康乐路店", "chain_slug": "family-mart", "category_slug": "supermarket", "address": "广州市番禺区康乐路115号之一之二铺", "city": "广州"}}, {"type": "Feature", "id": 6124, "geometry": {"type": "Point", "coordinates": [114.1090967, 22.6995894]}, "properties": {"id": 6124, "name": "全家星汇园店", "chain_slug": "family-mart", "category_slug": "supermarket", "address": "广州市天河区金穗路46号102单元及101单元", "city": "广州"}}, {"type": "Feature", "id": 6125, "geometry": {"type": "Point", "coordinates": [113.8546209, 22.7955232]}, "properties": {"id": 6125, "name": "全家立白大厦店", "chain_slug": "family-mart", "category_slug": "supermarket", "address": "广州市荔湾区长堤街109号一层102房", "city": "广州"}}, {"type": "Feature", "id": 6126, "geometry": {"type": "Point", "coordinates": [113.9159956, 22.5467003]}, "properties": {"id": 6126, "name": "全家南方通信大厦店", "chain_slug": "family-mart", "category_slug": "supermarket", "address": "天河区中山大道华景路1号", "city": "深圳"}}, {"type": "Feature", "id": 6127, "geometry": {"type": "Point", "coordinates": [113.3057733, 23.0267886]}, "properties": {"id": 6127, "name": "全家地铁大石站店", "chain_slug": "family-mart", "category_slug": "supermarket", "address": "广州市番禺区广州地铁三号线大石站D出口", "city": "广州"}}, {"type": "Feature", "id": 6128, "geometry": {"type": "Point", "coordinates": [113.3195388, 23.1531712]}, "properties": {"id": 6128, "name": "全家地铁广州东站店", "chain_slug": "family-mart", "category_slug": "supermarket", "address": "广州市天河区广州地铁三号线广州东站GZDZ-3-7S、GZDZ-3-8S号铺", "city": "广州"}}, {"type": "Feature", "id": 6129, "geometry": {"type": "Point", "coordinates": [113.4120971, 23.0380147]}, "properties": {"id": 6129, "name": "全家地铁新造站店", "chain_slug": "family-mart", "category_slug": "supermarket", "address": "番禺区地铁4号线新造站XZ-4-1S、XZ-4-2S", "city": "深圳"}}, {"type": "Feature", "id": 6130, "geometry": {"type": "Point", "coordinates": [113.2592508, 23.0503006]}, "properties": {"id": 6130, "name": "全家会江店", "chain_slug": "family-mart", "category_slug": "supermarket", "address": "广州市番禺区是被工业路644号", "city": "广州"}}, {"type": "Feature", "id": 6131, "geometry": {"type": "Point", "coordinates": [113.2591693, 23.1327372]}, "properties": {"id": 6131, "name": "全家华南测试店", "chain_slug": "family-mart", "category_slug": "supermarket", "address": "广州总部", "city": "广州"}}, {"type": "Feature", "id": 6132, "geometry": {"type": "Point", "coordinates": [113.3238467, 23.1424352]}, "properties": {"id": 6132, "name": "全家平安店", "chain_slug": "family-mart", "category_slug": "supermarket", "address": "广州市体育东路160号首层102铺", "city": "广州"}}, {"type": "Feature", "id": 6133, "geometry": {"type": "Point", "coordinates": [113.3495915, 23.0890933]}, "properties": {"id": 6133, "name": "全家广商店", "chain_slug": "family-mart", "category_slug": "supermarket", "address": "海珠区赤沙村赤沙路化工学校西侧自编1-2号铺", "city": "广州"}}, {"type": "Feature", "id": 6134, "geometry": {"type": "Point", "coordinates": [113.3280114, 23.138152]}, "properties": {"id": 6134, "name": "全家天河东店", "chain_slug": "family-mart", "category_slug": "supermarket", "address": "广东省广州市天河区天河东路75号新园商业裙楼第B1-B3裙楼幢1层106房", "city": "广东省广州"}}, {"type": "Feature", "id": 6135, "geometry": {"type": "Point", "coordinates": [113.3118991, 23.1291402]}, "properties": {"id": 6135, "name": "全家华强店", "chain_slug": "family-mart", "category_slug": "supermarket", "address": "广州市天河区华强路3号102房", "city": "广州"}}, {"type": "Feature", "id": 6136, "geometry": {"type": "Point", "coordinates": [113.3110764, 23.1208761]}, "properties": {"id": 6136, "name": "全家华利店", "chain_slug": "family-mart", "category_slug": "supermarket", "address": "广州市天河区华利路15，17，19号首层102铺之一", "city": "广州"}}, {"type": "Feature", "id": 6137, "geometry": {"type": "Point", "coordinates": [113.3030333, 23.10567]}, "properties": {"id": 6137, "name": "全家滨江东店", "chain_slug": "family-mart", "category_slug": "supermarket", "address": "广州市海珠区滨江东路795号首层104之01", "city": "广州"}}, {"type": "Feature", "id": 6138, "geometry": {"type": "Point", "coordinates": [113.2732667, 23.1093165]}, "properties": {"id": 6138, "name": "全家新港店", "chain_slug": "family-mart", "category_slug": "supermarket", "address": "广东省广州市海珠区新港西路181号首层大院1栋", "city": "广东省广州"}}, {"type": "Feature", "id": 6139, "geometry": {"type": "Point", "coordinates": [113.3283216, 23.1558004]}, "properties": {"id": 6139, "name": "全家粤垦店", "chain_slug": "family-mart", "category_slug": "supermarket", "address": "广东省广州市天河区粤垦路68号广垦商务大厦首层", "city": "广东省广州"}}, {"type": "Feature", "id": 6140, "geometry": {"type": "Point", "coordinates": [113.3155846, 23.1291263]}, "properties": {"id": 6140, "name": "全家华夏店", "chain_slug": "family-mart", "category_slug": "supermarket", "address": "广东省广州市天河区华夏路49号津滨腾越大厦1栋1层106/107铺", "city": "广东省广州"}}, {"type": "Feature", "id": 6141, "geometry": {"type": "Point", "coordinates": [113.3765338, 23.1695278]}, "properties": {"id": 6141, "name": "全家建中路店", "chain_slug": "family-mart", "category_slug": "supermarket", "address": "广东省广州市天河区中山大道科韵路33-49号方圆时光项目105号之一", "city": "广东省广州"}}, {"type": "Feature", "id": 6142, "geometry": {"type": "Point", "coordinates": [113.3628367, 23.1246832]}, "properties": {"id": 6142, "name": "全家凯利店", "chain_slug": "family-mart", "category_slug": "supermarket", "address": "广东省广州市天河区黄埔大道872号凯利大厦首层106室", "city": "广东省广州"}}, {"type": "Feature", "id": 6143, "geometry": {"type": "Point", "coordinates": [113.206921, 23.3796015]}, "properties": {"id": 6143, "name": "全家商业大道店", "chain_slug": "family-mart", "category_slug": "supermarket", "address": "广东省广州市花都区商业大道路37号102室", "city": "广东省广州"}}, {"type": "Feature", "id": 6144, "geometry": {"type": "Point", "coordinates": [113.2372478, 23.1444816]}, "properties": {"id": 6144, "name": "全家西村站店", "chain_slug": "family-mart", "category_slug": "supermarket", "address": "广州市越荔湾区地铁五号线西村站店内XC-5-9S铺", "city": "广州"}}, {"type": "Feature", "id": 6145, "geometry": {"type": "Point", "coordinates": [113.2617335, 23.1313482]}, "properties": {"id": 6145, "name": "全家火车站店", "chain_slug": "family-mart", "category_slug": "supermarket", "address": "广州市越秀区地铁五号线火车站店内GZHCZ-5-6S铺", "city": "广州"}}, {"type": "Feature", "id": 6146, "geometry": {"type": "Point", "coordinates": [113.2617335, 23.1313482]}, "properties": {"id": 6146, "name": "全家小北站店", "chain_slug": "family-mart", "category_slug": "supermarket", "address": "广州市越秀区地铁五号线小北站内XB-5-13铺", "city": "广州"}}, {"type": "Feature", "id": 6147, "geometry": {"type": "Point", "coordinates": [113.3959484, 23.1120611]}, "properties": {"id": 6147, "name": "全家东圃站店", "chain_slug": "family-mart", "category_slug": "supermarket", "address": "广州市天河区地铁五号线东圃站店内DP-5-2S铺", "city": "广州"}}, {"type": "Feature", "id": 6148, "geometry": {"type": "Point", "coordinates": [113.750063, 23.0156004]}, "properties": {"id": 6148, "name": "全家南峰中心店", "chain_slug": "family-mart", "category_slug": "supermarket", "address": "广东省东莞市南城区鸿福路106号南峰中心大堂旁", "city": "广东省东莞"}}, {"type": "Feature", "id": 6149, "geometry": {"type": "Point", "coordinates": [113.7406823, 23.0154123]}, "properties": {"id": 6149, "name": "全家南城华凯店", "chain_slug": "family-mart", "category_slug": "supermarket", "address": "广东省东莞市南城区元美西路华凯广场B栋首层B125、B126号商铺", "city": "广东省东莞"}}, {"type": "Feature", "id": 6150, "geometry": {"type": "Point", "coordinates": [113.8679677, 22.9114145]}, "properties": {"id": 6150, "name": "全家东莞理工店", "chain_slug": "family-mart", "category_slug": "supermarket", "address": "东莞市松山湖高新技术产业开发区东莞理工学院教师公寓J栋一层", "city": "东莞"}}, {"type": "Feature", "id": 6151, "geometry": {"type": "Point", "coordinates": [113.2890561, 23.1258716]}, "properties": {"id": 6151, "name": "全家署前店", "chain_slug": "family-mart", "category_slug": "supermarket", "address": "署前路署前一街29-1首层北面、二层北面", "city": "广州"}}, {"type": "Feature", "id": 6152, "geometry": {"type": "Point", "coordinates": [113.3121124, 23.1183602]}, "properties": {"id": 6152, "name": "全家华就店", "chain_slug": "family-mart", "category_slug": "supermarket", "address": "广东省广州市珠江新城华就路保利108公馆05-06号铺", "city": "广东省广州"}}, {"type": "Feature", "id": 6153, "geometry": {"type": "Point", "coordinates": [113.3388654, 23.1439384]}, "properties": {"id": 6153, "name": "全家科贸店", "chain_slug": "family-mart", "category_slug": "supermarket", "address": "广东省广州市天河区天河北路894号102房号自编112号", "city": "广东省广州"}}, {"type": "Feature", "id": 6154, "geometry": {"type": "Point", "coordinates": [113.2888867, 23.1061179]}, "properties": {"id": 6154, "name": "全家滨江东二店", "chain_slug": "family-mart", "category_slug": "supermarket", "address": "广州市海珠区滨江东路545号之一", "city": "广州"}}, {"type": "Feature", "id": 6155, "geometry": {"type": "Point", "coordinates": [113.355341, 23.133577]}, "properties": {"id": 6155, "name": "全家东逸店", "chain_slug": "family-mart", "category_slug": "supermarket", "address": "广州市天河区东方三路210号东逸一街21号首层之一", "city": "广州"}}, {"type": "Feature", "id": 6156, "geometry": {"type": "Point", "coordinates": [113.2830184, 23.0679732]}, "properties": {"id": 6156, "name": "全家金碧店", "chain_slug": "family-mart", "category_slug": "supermarket", "address": "广东省广州市海珠区工业大道南第三金碧花园金恒北一街10号商铺", "city": "广东省广州"}}, {"type": "Feature", "id": 6157, "geometry": {"type": "Point", "coordinates": [113.3011509, 23.1347384]}, "properties": {"id": 6157, "name": "全家东风东路店", "chain_slug": "family-mart", "category_slug": "supermarket", "address": "广东省广州市越秀区东风东路753号天誉商务大厦首层自编109A号铺", "city": "广东省广州"}}, {"type": "Feature", "id": 6158, "geometry": {"type": "Point", "coordinates": [113.2465635, 23.1348994]}, "properties": {"id": 6158, "name": "全家嘉和店", "chain_slug": "family-mart", "category_slug": "supermarket", "address": "越秀区东风西路148-1号9铺", "city": "广州"}}, {"type": "Feature", "id": 6159, "geometry": {"type": "Point", "coordinates": [113.3257437, 23.1581584]}, "properties": {"id": 6159, "name": "全家粤垦二店", "chain_slug": "family-mart", "category_slug": "supermarket", "address": "广州市天河区粤垦路523号101之三铺", "city": "广州"}}, {"type": "Feature", "id": 6160, "geometry": {"type": "Point", "coordinates": [113.3388142, 23.1183288]}, "properties": {"id": 6160, "name": "全家南国店", "chain_slug": "family-mart", "category_slug": "supermarket", "address": "天河区平月路南国一街17号106D房", "city": "广州"}}, {"type": "Feature", "id": 6161, "geometry": {"type": "Point", "coordinates": [113.3356459, 23.1263194]}, "properties": {"id": 6161, "name": "全家海业路店", "chain_slug": "family-mart", "category_slug": "supermarket", "address": "广东省广州市天河区海业路3号自编号F栋首层", "city": "广东省广州"}}, {"type": "Feature", "id": 6162, "geometry": {"type": "Point", "coordinates": [113.307348, 23.103843]}, "properties": {"id": 6162, "name": "全家金菊店", "chain_slug": "family-mart", "category_slug": "supermarket", "address": "海珠区金菊路3号", "city": "广州"}}, {"type": "Feature", "id": 6163, "geometry": {"type": "Point", "coordinates": [113.3029743, 23.1374521]}, "properties": {"id": 6163, "name": "全家环市东店", "chain_slug": "family-mart", "category_slug": "supermarket", "address": "环市东路503号首层自编西侧", "city": "广州"}}, {"type": "Feature", "id": 6164, "geometry": {"type": "Point", "coordinates": [113.3046505, 23.1301671]}, "properties": {"id": 6164, "name": "全家中山一店", "chain_slug": "family-mart", "category_slug": "supermarket", "address": "广东省广州市越秀区中山一路51号之14号铺", "city": "广东省广州"}}, {"type": "Feature", "id": 6165, "geometry": {"type": "Point", "coordinates": [113.2644906, 22.9915056]}, "properties": {"id": 6165, "name": "全家南站2店", "chain_slug": "family-mart", "category_slug": "supermarket", "address": "番禺区广州南站高架候车层广2-18", "city": "番禺区广州"}}, {"type": "Feature", "id": 6166, "geometry": {"type": "Point", "coordinates": [113.2996716, 23.1359465]}, "properties": {"id": 6166, "name": "全家东环路店", "chain_slug": "family-mart", "category_slug": "supermarket", "address": "广东省广州市越秀区东环路19号首层自编之1", "city": "广东省广州"}}, {"type": "Feature", "id": 6167, "geometry": {"type": "Point", "coordinates": [113.3315067, 23.1472917]}, "properties": {"id": 6167, "name": "全家文学艺术中心店", "chain_slug": "family-mart", "category_slug": "supermarket", "address": "天河区龙口西550号地下东南部位", "city": "广州"}}, {"type": "Feature", "id": 6168, "geometry": {"type": "Point", "coordinates": [113.2772626, 23.1412741]}, "properties": {"id": 6168, "name": "全家国际店", "chain_slug": "family-mart", "category_slug": "supermarket", "address": "越秀区环市东路339号裙楼05商铺", "city": "越秀区环"}}, {"type": "Feature", "id": 6169, "geometry": {"type": "Point", "coordinates": [113.324951, 23.1047244]}, "properties": {"id": 6169, "name": "全家帝景苑店", "chain_slug": "family-mart", "category_slug": "supermarket", "address": "海珠区珠江帝景苑3号101铺", "city": "广州"}}, {"type": "Feature", "id": 6170, "geometry": {"type": "Point", "coordinates": [113.2644906, 22.9915056]}, "properties": {"id": 6170, "name": "全家南站3店", "chain_slug": "family-mart", "category_slug": "supermarket", "address": "番禺区广州南站候车层广209-1", "city": "番禺区广州"}}, {"type": "Feature", "id": 6171, "geometry": {"type": "Point", "coordinates": [113.3236193, 23.1839077]}, "properties": {"id": 6171, "name": "全家京溪店", "chain_slug": "family-mart", "category_slug": "supermarket", "address": "广东省广州市白云区京溪路云楠苑首层102号", "city": "广东省广州"}}, {"type": "Feature", "id": 6172, "geometry": {"type": "Point", "coordinates": [113.3088573, 23.1433382]}, "properties": {"id": 6172, "name": "全家新达城店", "chain_slug": "family-mart", "category_slug": "supermarket", "address": "天河区广州大道北195号首层102单元", "city": "天河区广州"}}, {"type": "Feature", "id": 6173, "geometry": {"type": "Point", "coordinates": [113.3270222, 23.0984171]}, "properties": {"id": 6173, "name": "全家赤岗北店", "chain_slug": "family-mart", "category_slug": "supermarket", "address": "广州市海珠区新港中路464号自编1号", "city": "广州"}}, {"type": "Feature", "id": 6174, "geometry": {"type": "Point", "coordinates": [113.2809079, 23.2249575]}, "properties": {"id": 6174, "name": "全家时代玫瑰园店", "chain_slug": "family-mart", "category_slug": "supermarket", "address": "广东省广州市白云区向荣街340号101铺", "city": "广东省广州"}}, {"type": "Feature", "id": 6175, "geometry": {"type": "Point", "coordinates": [113.2554142, 23.1079641]}, "properties": {"id": 6175, "name": "全家同福中路店", "chain_slug": "family-mart", "category_slug": "supermarket", "address": "广东省广州市海珠区同福中路365号", "city": "广东省广州"}}, {"type": "Feature", "id": 6176, "geometry": {"type": "Point", "coordinates": [113.2498641, 23.1283805]}, "properties": {"id": 6176, "name": "全家中山六路店", "chain_slug": "family-mart", "category_slug": "supermarket", "address": "广东省广州市越秀区中山六路242-248号越秀新都会大厦裙楼一至三楼商铺", "city": "广东省广州"}}, {"type": "Feature", "id": 6177, "geometry": {"type": "Point", "coordinates": [113.2801179, 23.1228911]}, "properties": {"id": 6177, "name": "全家白云大厦店", "chain_slug": "family-mart", "category_slug": "supermarket", "address": "越秀区白云路113号101室", "city": "广州"}},