{"type": "FeatureCollection", "features": [{"type": "Feature", "id": 10228, "geometry": {"type": "Point", "coordinates": [104.248194593, 23.370970337]}, "properties": {"id": 10228, "name": "麦当劳文山光大购物中心餐厅", "chain_slug": "mcdonalds", "category_slug": "supermarket", "address": "东风路光大广场二组团东风路一层一号商铺", "city": "文山壮族苗族自治州"}}, {"type": "Feature", "id": 10229, "geometry": {"type": "Point", "coordinates": [98.579444589, 24.429050246]}, "properties": {"id": 10229, "name": "麦当劳德宏芒市团结大街餐厅", "chain_slug": "mcdonalds", "category_slug": "supermarket", "address": "德宏州团结大街与南蚌路交叉口三棵树旺角商业广场", "city": "德宏傣族景颇族自治州"}}, {"type": "Feature", "id": 10230, "geometry": {"type": "Point", "coordinates": [102.823459947, 24.880768359]}, "properties": {"id": 10230, "name": "麦当劳昆明朝云街餐厅", "chain_slug": "mcdonalds", "category_slug": "supermarket", "address": "朝云街七彩云南第壹城购物中心一层", "city": "昆明市"}}, {"type": "Feature", "id": 10231, "geometry": {"type": "Point", "coordinates": [102.822031737, 24.883720316]}, "properties": {"id": 10231, "name": "麦当劳昆明实力心城花千坊餐厅", "chain_slug": "mcdonalds", "category_slug": "supermarket", "address": "谊康北路767号建筑物26栋一层101号", "city": "昆明市"}}, {"type": "Feature", "id": 10232, "geometry": {"type": "Point", "coordinates": [102.792389922, 24.906131623]}, "properties": {"id": 10232, "name": "麦当劳昆明斗南春城花街餐厅", "chain_slug": "mcdonalds", "category_slug": "supermarket", "address": "兴呈路与彩云北路交叉口兴冶国际A栋一层A-004号商铺", "city": "昆明市"}}, {"type": "Feature", "id": 10233, "geometry": {"type": "Point", "coordinates": [101.540087229, 25.035915664]}, "properties": {"id": 10233, "name": "麦当劳楚雄市信义街餐厅", "chain_slug": "mcdonalds", "category_slug": "supermarket", "address": "鹿城镇环城西路181号", "city": "楚雄彝族自治州"}}, {"type": "Feature", "id": 10234, "geometry": {"type": "Point", "coordinates": [101.555551723, 25.038718234]}, "properties": {"id": 10234, "name": "麦当劳楚雄丹麓小镇餐厅", "chain_slug": "mcdonalds", "category_slug": "supermarket", "address": "银杏大道丹麓商业广场1层", "city": "楚雄彝族自治州"}}, {"type": "Feature", "id": 10235, "geometry": {"type": "Point", "coordinates": [100.803438542, 22.006965765]}, "properties": {"id": 10235, "name": "麦当劳西双版纳王府广场餐厅", "chain_slug": "mcdonalds", "category_slug": "supermarket", "address": "勐海路王府广场1号楼", "city": "西双版纳傣族自治州"}}, {"type": "Feature", "id": 10236, "geometry": {"type": "Point", "coordinates": [100.816695652, 22.012167787]}, "properties": {"id": 10236, "name": "麦当劳西双版纳告庄西双景景罕寨餐厅", "chain_slug": "mcdonalds", "category_slug": "supermarket", "address": "宣慰大道2号告庄西双景景罕寨15栋127号", "city": "西双版纳傣族自治州"}}, {"type": "Feature", "id": 10237, "geometry": {"type": "Point", "coordinates": [100.764962709, 22.017697756]}, "properties": {"id": 10237, "name": "麦当劳西双版纳融创茂餐厅", "chain_slug": "mcdonalds", "category_slug": "supermarket", "address": "景洪工业园区万达广场路1号西双版纳融创茂商业中心1029号商铺", "city": "西双版纳傣族自治州"}}, {"type": "Feature", "id": 10238, "geometry": {"type": "Point", "coordinates": [100.772724575, 21.98755207]}, "properties": {"id": 10238, "name": "麦当劳西双版纳高铁站站前广场餐厅", "chain_slug": "mcdonalds", "category_slug": "supermarket", "address": "景洪市西双版纳高铁站站前广场管理中心独栋（进站口方向）", "city": "西双版纳傣族自治州"}}, {"type": "Feature", "id": 10239, "geometry": {"type": "Point", "coordinates": [100.230055169, 26.857828627]}, "properties": {"id": 10239, "name": "麦当劳丽江纳里文创商业街餐厅", "chain_slug": "mcdonalds", "category_slug": "supermarket", "address": "祥和街道祥云街吉祥段172号丽江纳里文创商业街D区1层，2层商铺", "city": "丽江市"}}, {"type": "Feature", "id": 10240, "geometry": {"type": "Point", "coordinates": [100.23330887, 26.879275773]}, "properties": {"id": 10240, "name": "麦当劳丽江玉河广场餐厅", "chain_slug": "mcdonalds", "category_slug": "supermarket", "address": "新义街积善巷81号", "city": "丽江市"}}, {"type": "Feature", "id": 10241, "geometry": {"type": "Point", "coordinates": [99.171342283, 25.136397243]}, "properties": {"id": 10241, "name": "麦当劳保山志和金街餐厅", "chain_slug": "mcdonalds", "category_slug": "supermarket", "address": "学府路永昌大酒店北侧约40米", "city": "保山市"}}, {"type": "Feature", "id": 10242, "geometry": {"type": "Point", "coordinates": [100.249766209, 25.593849669]}, "properties": {"id": 10242, "name": "麦当劳大理大理站出发层餐厅", "chain_slug": "mcdonalds", "category_slug": "supermarket", "address": "巍山路261号", "city": "大理白族自治州"}}, {"type": "Feature", "id": 10243, "geometry": {"type": "Point", "coordinates": [100.239636616, 25.59944958]}, "properties": {"id": 10243, "name": "麦当劳大理宾川路餐厅", "chain_slug": "mcdonalds", "category_slug": "supermarket", "address": "宾川路中红海峡广场首层", "city": "大理白族自治州"}}, {"type": "Feature", "id": 10244, "geometry": {"type": "Point", "coordinates": [100.226058238, 25.589109126]}, "properties": {"id": 10244, "name": "麦当劳大理泰安广场餐厅", "chain_slug": "mcdonalds", "category_slug": "supermarket", "address": "下关泰安路与建设路交汇处时代天街1楼", "city": "大理白族自治州"}}, {"type": "Feature", "id": 10245, "geometry": {"type": "Point", "coordinates": [102.540065232, 24.352077958]}, "properties": {"id": 10245, "name": "麦当劳玉溪玉溪极中心餐厅", "chain_slug": "mcdonalds", "category_slug": "supermarket", "address": "棋阳路极中心购物广场一层", "city": "玉溪市"}}, {"type": "Feature", "id": 10246, "geometry": {"type": "Point", "coordinates": [102.541238077, 24.347153213]}, "properties": {"id": 10246, "name": "麦当劳玉溪东风路餐厅", "chain_slug": "mcdonalds", "category_slug": "supermarket", "address": "东风路１号美佳华商业广场１层", "city": "玉溪市"}}, {"type": "Feature", "id": 10247, "geometry": {"type": "Point", "coordinates": [103.398274919, 23.360793693]}, "properties": {"id": 10247, "name": "麦当劳蒙自南湖餐厅", "chain_slug": "mcdonalds", "category_slug": "supermarket", "address": "天马路35号南湖荟第壹城商业广场一层", "city": "红河哈尼族彝族自治州"}}, {"type": "Feature", "id": 10248, "geometry": {"type": "Point", "coordinates": [103.790086021, 25.495523379]}, "properties": {"id": 10248, "name": "麦当劳曲靖汇泰新天地餐厅", "chain_slug": "mcdonalds", "category_slug": "supermarket", "address": "廖廓南路与书院路交汇处汇泰新天地一层 IA-14 商铺", "city": "曲靖市"}}, {"type": "Feature", "id": 10249, "geometry": {"type": "Point", "coordinates": [103.800476472, 25.497469872]}, "properties": {"id": 10249, "name": "麦当劳曲靖南宁西路餐厅", "chain_slug": "mcdonalds", "category_slug": "supermarket", "address": "南宁西路68号", "city": "曲靖市"}}, {"type": "Feature", "id": 10250, "geometry": {"type": "Point", "coordinates": [103.709420902, 27.334845438]}, "properties": {"id": 10250, "name": "麦当劳昭通昭阳大道餐厅", "chain_slug": "mcdonalds", "category_slug": "supermarket", "address": "昭阳大道金池购物中心一楼", "city": "昭通市"}}, {"type": "Feature", "id": 10251, "geometry": {"type": "Point", "coordinates": [94.359607286, 29.665630772]}, "properties": {"id": 10251, "name": "麦当劳林芝工布老街餐厅", "chain_slug": "mcdonalds", "category_slug": "supermarket", "address": "林芝市巴宜区八一镇工布老街", "city": "林芝市"}}, {"type": "Feature", "id": 10252, "geometry": {"type": "Point", "coordinates": [88.88880797, 29.268030581]}, "properties": {"id": 10252, "name": "麦当劳日喀则神力时代广场餐厅", "chain_slug": "mcdonalds", "category_slug": "supermarket", "address": "黑龙江路14号神力时代广场一层麦当劳", "city": "日喀则市"}}, {"type": "Feature", "id": 10253, "geometry": {"type": "Point", "coordinates": [91.773269565, 29.243905219]}, "properties": {"id": 10253, "name": "麦当劳西藏山南神力时代广场餐厅", "chain_slug": "mcdonalds", "category_slug": "supermarket", "address": "萨热路与贡布路交叉口东北神力时代广场1001铺，2001铺麦当劳餐厅", "city": "山南市"}}, {"type": "Feature", "id": 10254, "geometry": {"type": "Point", "coordinates": [91.164740972, 29.660296177]}, "properties": {"id": 10254, "name": "麦当劳拉萨纳金中路摩登时代生活广场餐厅", "chain_slug": "mcdonalds", "category_slug": "supermarket", "address": "纳金乡纳金中路新天地（摩登时代生活广场）一楼", "city": "拉萨市"}}, {"type": "Feature", "id": 10255, "geometry": {"type": "Point", "coordinates": [91.138117381, 29.656617203]}, "properties": {"id": 10255, "name": "麦当劳拉萨八廓商城餐厅", "chain_slug": "mcdonalds", "category_slug": "supermarket", "address": "林廓东路99号", "city": "拉萨市"}}, {"type": "Feature", "id": 10256, "geometry": {"type": "Point", "coordinates": [97.178872348, 31.140908023]}, "properties": {"id": 10256, "name": "麦当劳昌都茶马广场餐厅", "chain_slug": "mcdonalds", "category_slug": "supermarket", "address": "城关镇茶马广场都都卡商业广场主入口一层麦当劳", "city": "昌都市"}}, {"type": "Feature", "id": 10257, "geometry": {"type": "Point", "coordinates": [126.416798425, 41.936614792]}, "properties": {"id": 10257, "name": "麦当劳白山红旗街银座餐厅", "chain_slug": "mcdonalds", "category_slug": "supermarket", "address": "红旗街银座大厦一层", "city": "白山市"}}, {"type": "Feature", "id": 10258, "geometry": {"type": "Point", "coordinates": [129.451700551, 42.897896732]}, "properties": {"id": 10258, "name": "麦当劳延吉金达莱餐厅", "chain_slug": "mcdonalds", "category_slug": "supermarket", "address": "延河路延吉万达广场一楼2号门中厅处", "city": "延边朝鲜族自治州"}}, {"type": "Feature", "id": 10259, "geometry": {"type": "Point", "coordinates": [129.505407976, 42.903316305]}, "properties": {"id": 10259, "name": "麦当劳延吉百货大楼餐厅", "chain_slug": "mcdonalds", "category_slug": "supermarket", "address": "光明街608号", "city": "延边朝鲜族自治州"}}, {"type": "Feature", "id": 10260, "geometry": {"type": "Point", "coordinates": [125.930411069, 41.705243254]}, "properties": {"id": 10260, "name": "麦当劳通化欧亚购物中心餐厅", "chain_slug": "mcdonalds", "category_slug": "supermarket", "address": "滨江南路/1-1", "city": "通化市"}}, {"type": "Feature", "id": 10261, "geometry": {"type": "Point", "coordinates": [125.142695815, 42.90090288]}, "properties": {"id": 10261, "name": "麦当劳辽源西宁大路银座中庭餐厅", "chain_slug": "mcdonalds", "category_slug": "supermarket", "address": "西宁大路9号", "city": "辽源市"}}, {"type": "Feature", "id": 10262, "geometry": {"type": "Point", "coordinates": [125.113427249, 42.895694388]}, "properties": {"id": 10262, "name": "麦当劳辽源向阳大路欧亚餐厅", "chain_slug": "mcdonalds", "category_slug": "supermarket", "address": "财富大路146号", "city": "辽源市"}}, {"type": "Feature", "id": 10263, "geometry": {"type": "Point", "coordinates": [124.363846464, 43.168534516]}, "properties": {"id": 10263, "name": "麦当劳四平百货大楼餐厅", "chain_slug": "mcdonalds", "category_slug": "supermarket", "address": "南仁兴街389号四平百货大楼一层BJ06号商铺", "city": "四平市"}}, {"type": "Feature", "id": 10264, "geometry": {"type": "Point", "coordinates": [124.843890297, 45.134998293]}, "properties": {"id": 10264, "name": "麦当劳松原中东新天地餐厅", "chain_slug": "mcdonalds", "category_slug": "supermarket", "address": "五环大街3777号", "city": "松原市"}}, {"type": "Feature", "id": 10265, "geometry": {"type": "Point", "coordinates": [122.821494299, 45.595010537]}, "properties": {"id": 10265, "name": "麦当劳白城欧亚购物中心餐厅", "chain_slug": "mcdonalds", "category_slug": "supermarket", "address": "经济开发区开发大街111号(一层麦当劳)", "city": "白城市"}}, {"type": "Feature", "id": 10266, "geometry": {"type": "Point", "coordinates": [125.330257322, 43.815123415]}, "properties": {"id": 10266, "name": "麦当劳长春欧亚南三环餐厅", "chain_slug": "mcdonalds", "category_slug": "supermarket", "address": "亚泰大街与南三环交汇处", "city": "长春市"}}, {"type": "Feature", "id": 10267, "geometry": {"type": "Point", "coordinates": [125.318570021, 43.82944556]}, "properties": {"id": 10267, "name": "麦当劳长春国商百货卫星广场餐厅", "chain_slug": "mcdonalds", "category_slug": "supermarket", "address": "人民大街207号", "city": "长春市"}}, {"type": "Feature", "id": 10268, "geometry": {"type": "Point", "coordinates": [125.314825217, 43.829998037]}, "properties": {"id": 10268, "name": "麦当劳长春卫星路长春大学校外餐厅", "chain_slug": "mcdonalds", "category_slug": "supermarket", "address": "卫星路6543号", "city": "长春市"}}, {"type": "Feature", "id": 10269, "geometry": {"type": "Point", "coordinates": [125.311894479, 43.796827934]}, "properties": {"id": 10269, "name": "麦当劳长春华惠路钜城华億购物广场餐厅", "chain_slug": "mcdonalds", "category_slug": "supermarket", "address": "钜城华億购物广场", "city": "长春市"}}, {"type": "Feature", "id": 10270, "geometry": {"type": "Point", "coordinates": [125.30493387, 43.798270606]}, "properties": {"id": 10270, "name": "麦当劳长春华远路远大购物广场餐厅", "chain_slug": "mcdonalds", "category_slug": "supermarket", "address": "长春远大购物广场C地块C-S3101馆一层C-1010号麦当劳", "city": "长春市"}}, {"type": "Feature", "id": 10271, "geometry": {"type": "Point", "coordinates": [125.358411278, 43.812219089]}, "properties": {"id": 10271, "name": "麦当劳长春中海国际广场鸥凯餐厅", "chain_slug": "mcdonalds", "category_slug": "supermarket", "address": "临河街与南三环交汇中海国际广场H10栋", "city": "长春市"}}, {"type": "Feature", "id": 10272, "geometry": {"type": "Point", "coordinates": [125.280349326, 43.82934328]}, "properties": {"id": 10272, "name": "麦当劳长春国泰RioMall餐厅", "chain_slug": "mcdonalds", "category_slug": "supermarket", "address": "卫星路国泰RioMall", "city": "长春市"}}, {"type": "Feature", "id": 10273, "geometry": {"type": "Point", "coordinates": [125.272829612, 43.824709709]}, "properties": {"id": 10273, "name": "麦当劳长春致远街吉林大学商座餐厅", "chain_slug": "mcdonalds", "category_slug": "supermarket", "address": "高新技术开发区致远街555号", "city": "长春市"}}, {"type": "Feature", "id": 10274, "geometry": {"type": "Point", "coordinates": [125.372722848, 43.81116463]}, "properties": {"id": 10274, "name": "麦当劳长春环球贸易中心餐厅", "chain_slug": "mcdonalds", "category_slug": "supermarket", "address": "净月开发区生态大街2188号", "city": "长春市"}}, {"type": "Feature", "id": 10275, "geometry": {"type": "Point", "coordinates": [125.272206168, 43.789448759]}, "properties": {"id": 10275, "name": "麦当劳长春芳草街金地风华得来速餐厅", "chain_slug": "mcdonalds", "category_slug": "supermarket", "address": "金宇南路与芳草街交汇处金地时代中心A1栋103、104、105", "city": "长春市"}}, {"type": "Feature", "id": 10276, "geometry": {"type": "Point", "coordinates": [125.252565022, 43.815809674]}, "properties": {"id": 10276, "name": "麦当劳长春博文路栖乐荟餐厅", "chain_slug": "mcdonalds", "category_slug": "supermarket", "address": "博文路栖乐荟一层麦当劳", "city": "长春市"}}, {"type": "Feature", "id": 10277, "geometry": {"type": "Point", "coordinates": [125.245141242, 43.819311213]}, "properties": {"id": 10277, "name": "麦当劳长春高新活力汇晶丹餐厅", "chain_slug": "mcdonalds", "category_slug": "supermarket", "address": "华光街与佳园路交汇", "city": "长春市"}}, {"type": "Feature", "id": 10278, "geometry": {"type": "Point", "coordinates": [125.25003457, 43.835297034]}, "properties": {"id": 10278, "name": "麦当劳长春光谷大街新大光谷里得来速餐厅", "chain_slug": "mcdonalds", "category_slug": "supermarket", "address": "高新区光谷大街与飞跃路交汇新大光谷里6#01号房", "city": "长春市"}}, {"type": "Feature", "id": 10279, "geometry": {"type": "Point", "coordinates": [125.234274965, 43.836808405]}, "properties": {"id": 10279, "name": "麦当劳长春飞跃路欧亚卖场20号门餐厅", "chain_slug": "mcdonalds", "category_slug": "supermarket", "address": "开运街5178号长春欧亚卖场", "city": "长春市"}}, {"type": "Feature", "id": 10280, "geometry": {"type": "Point", "coordinates": [125.215475907, 43.80582224]}, "properties": {"id": 10280, "name": "麦当劳长春超达大路远方超市餐厅", "chain_slug": "mcdonalds", "category_slug": "supermarket", "address": "超达大路与光谷大街交汇处", "city": "长春市"}}, {"type": "Feature", "id": 10281, "geometry": {"type": "Point", "coordinates": [125.269619528, 43.851142538]}, "properties": {"id": 10281, "name": "麦当劳长春辉南街远方超市餐厅", "chain_slug": "mcdonalds", "category_slug": "supermarket", "address": "辉南街与红旗街交汇59号远方超市", "city": "长春市"}}, {"type": "Feature", "id": 10282, "geometry": {"type": "Point", "coordinates": [125.220739798, 43.789071246]}, "properties": {"id": 10282, "name": "麦当劳长春高新居然购物中心餐厅", "chain_slug": "mcdonalds", "category_slug": "supermarket", "address": "硅谷大街与锦湖大路交叉口南100米", "city": "长春市"}}, {"type": "Feature", "id": 10283, "geometry": {"type": "Point", "coordinates": [125.249732653, 43.778300048]}, "properties": {"id": 10283, "name": "麦当劳长春中海澜庭餐厅", "chain_slug": "mcdonalds", "category_slug": "supermarket", "address": "创意路超然大街交汇", "city": "长春市"}}, {"type": "Feature", "id": 10284, "geometry": {"type": "Point", "coordinates": [125.184094179, 43.824983409]}, "properties": {"id": 10284, "name": "麦当劳长春西湖大路中奥得来速餐厅", "chain_slug": "mcdonalds", "category_slug": "supermarket", "address": "开发区西湖大路", "city": "长春市"}}, {"type": "Feature", "id": 10285, "geometry": {"type": "Point", "coordinates": [125.221794777, 43.769385134]}, "properties": {"id": 10285, "name": "麦当劳长春超强街百鑫生鲜连锁超市餐厅", "chain_slug": "mcdonalds", "category_slug": "supermarket", "address": "长春新区超强街", "city": "长春市"}}, {"type": "Feature", "id": 10286, "geometry": {"type": "Point", "coordinates": [125.256126055, 43.86157535]}, "properties": {"id": 10286, "name": "麦当劳长春欧亚车百餐厅", "chain_slug": "mcdonalds", "category_slug": "supermarket", "address": "东风大街1038号", "city": "长春市"}}, {"type": "Feature", "id": 10287, "geometry": {"type": "Point", "coordinates": [125.221252152, 43.872783277]}, "properties": {"id": 10287, "name": "麦当劳长春南阳路中海同心湖得来速餐厅", "chain_slug": "mcdonalds", "category_slug": "supermarket", "address": "南阳路中海同心湖A地块AS5#108、109、110、111号商铺", "city": "长春市"}}, {"type": "Feature", "id": 10288, "geometry": {"type": "Point", "coordinates": [125.289944277, 43.865443664]}, "properties": {"id": 10288, "name": "麦当劳长春红旗街万达广场8号门餐厅", "chain_slug": "mcdonalds", "category_slug": "supermarket", "address": "红旗街万达广场8号门", "city": "长春市"}}, {"type": "Feature", "id": 10289, "geometry": {"type": "Point", "coordinates": [125.299433037, 43.861506808]}, "properties": {"id": 10289, "name": "麦当劳长春欧亚新生活餐厅", "chain_slug": "mcdonalds", "category_slug": "supermarket", "address": "延安大街99号", "city": "长春市"}}, {"type": "Feature", "id": 10290, "geometry": {"type": "Point", "coordinates": [125.317868876, 43.861295588]}, "properties": {"id": 10290, "name": "麦当劳长春友谊餐厅", "chain_slug": "mcdonalds", "category_slug": "supermarket", "address": "人民大街147号", "city": "长春市"}}, {"type": "Feature", "id": 10291, "geometry": {"type": "Point", "coordinates": [125.311351348, 43.863562289]}, "properties": {"id": 10291, "name": "麦当劳长春同志街餐厅", "chain_slug": "mcdonalds", "category_slug": "supermarket", "address": "同志街与西康路交汇恒客隆1层，同志街2639号", "city": "长春市"}}, {"type": "Feature", "id": 10292, "geometry": {"type": "Point", "coordinates": [125.32704083, 43.860307393]}, "properties": {"id": 10292, "name": "麦当劳长春东北师范大学食堂餐厅", "chain_slug": "mcdonalds", "category_slug": "supermarket", "address": "人民大街5268号", "city": "长春市"}}, {"type": "Feature", "id": 10293, "geometry": {"type": "Point", "coordinates": [125.359700721, 43.843671399]}, "properties": {"id": 10293, "name": "麦当劳长春临河街国商百货十二坊餐厅", "chain_slug": "mcdonalds", "category_slug": "supermarket", "address": "临河街5062号", "city": "长春市"}}, {"type": "Feature", "id": 10294, "geometry": {"type": "Point", "coordinates": [125.373766185, 43.831814795]}, "properties": {"id": 10294, "name": "麦当劳长春摩天活力城一期餐厅", "chain_slug": "mcdonalds", "category_slug": "supermarket", "address": "经济开发区仙台大街以东，卫星路以北中央商务区B地块1号楼101号至122号商铺", "city": "长春市"}}, {"type": "Feature", "id": 10295, "geometry": {"type": "Point", "coordinates": [125.372485893, 43.850051058]}, "properties": {"id": 10295, "name": "麦当劳长春赛德购物中心餐厅", "chain_slug": "mcdonalds", "category_slug": "supermarket", "address": "仙台大街1228号", "city": "长春市"}}, {"type": "Feature", "id": 10296, "geometry": {"type": "Point", "coordinates": [125.361913698, 43.861633511]}, "properties": {"id": 10296, "name": "麦当劳长春自由大路北方市场餐厅", "chain_slug": "mcdonalds", "category_slug": "supermarket", "address": "自由大路4848号", "city": "长春市"}}, {"type": "Feature", "id": 10297, "geometry": {"type": "Point", "coordinates": [125.411797838, 43.818275662]}, "properties": {"id": 10297, "name": "麦当劳长春博学路餐厅", "chain_slug": "mcdonalds", "category_slug": "supermarket", "address": "净月经济技术开发区博学路1555号迅驰广场麦当劳餐厅", "city": "长春市"}}, {"type": "Feature", "id": 10298, "geometry": {"type": "Point", "coordinates": [125.435367832, 43.803678644]}, "properties": {"id": 10298, "name": "麦当劳长春聚业大街卓展生活超市餐厅", "chain_slug": "mcdonalds", "category_slug": "supermarket", "address": "净月大街4775号中信城12#地块26【幢】101号房", "city": "长春市"}}, {"type": "Feature", "id": 10299, "geometry": {"type": "Point", "coordinates": [125.410335802, 43.784605045]}, "properties": {"id": 10299, "name": "麦当劳长春金桔路餐厅", "chain_slug": "mcdonalds", "category_slug": "supermarket", "address": "净月区郁金香街99号凤凰雅居1#103号麦当劳", "city": "长春市"}}, {"type": "Feature", "id": 10300, "geometry": {"type": "Point", "coordinates": [125.40821453, 43.768516697]}, "properties": {"id": 10300, "name": "麦当劳长春伟峰东域餐厅", "chain_slug": "mcdonalds", "category_slug": "supermarket", "address": "永顺路伟峰东域1楼", "city": "长春市"}}, {"type": "Feature", "id": 10301, "geometry": {"type": "Point", "coordinates": [125.377245156, 43.88749627]}, "properties": {"id": 10301, "name": "麦当劳长春吉林大路亚泰新动力购物中心餐厅", "chain_slug": "mcdonalds", "category_slug": "supermarket", "address": "吉林大路2235号", "city": "长春市"}}, {"type": "Feature", "id": 10302, "geometry": {"type": "Point", "coordinates": [125.378607231, 43.890707113]}, "properties": {"id": 10302, "name": "麦当劳长春万科文旅(长拖1958)餐厅", "chain_slug": "mcdonalds", "category_slug": "supermarket", "address": "东新路与福安街交汇长拖1958项目3#厂房1-2层A1商铺麦当劳", "city": "长春市"}}, {"type": "Feature", "id": 10303, "geometry": {"type": "Point", "coordinates": [125.29068819, 43.867868884]}, "properties": {"id": 10303, "name": "麦当劳长春时代天街购物中心餐厅", "chain_slug": "mcdonalds", "category_slug": "supermarket", "address": "红旗街7号", "city": "长春市"}}, {"type": "Feature", "id": 10304, "geometry": {"type": "Point", "coordinates": [125.26895397, 43.886438273]}, "properties": {"id": 10304, "name": "麦当劳长春吾悅广场佳蕊餐厅", "chain_slug": "mcdonalds", "category_slug": "supermarket", "address": "皓月大路与正阳街新城吾悦广场2F2017", "city": "长春市"}}, {"type": "Feature", "id": 10305, "geometry": {"type": "Point", "coordinates": [125.294334726, 43.892358129]}, "properties": {"id": 10305, "name": "麦当劳长春轻轨3号线西安桥出站口餐厅", "chain_slug": "mcdonalds", "category_slug": "supermarket", "address": "西安大路2188号", "city": "长春市"}}, {"type": "Feature", "id": 10306, "geometry": {"type": "Point", "coordinates": [125.314961869, 43.886341484]}, "properties": {"id": 10306, "name": "麦当劳长春钻石活力汇餐厅", "chain_slug": "mcdonalds", "category_slug": "supermarket", "address": "重庆路1388号钻石活力汇一层109号商铺", "city": "长春市"}}, {"type": "Feature", "id": 10307, "geometry": {"type": "Point", "coordinates": [125.328292884, 43.888656228]}, "properties": {"id": 10307, "name": "麦当劳长春重庆路活力城餐厅", "chain_slug": "mcdonalds", "category_slug": "supermarket", "address": "重庆路活力城1层麦当劳", "city": "长春市"}}, {"type": "Feature", "id": 10308, "geometry": {"type": "Point", "coordinates": [125.325724297, 43.898647962]}, "properties": {"id": 10308, "name": "麦当劳长春上海路万达广场餐厅", "chain_slug": "mcdonalds", "category_slug": "supermarket", "address": "上海路万达广场10号门旁负一层", "city": "长春市"}}, {"type": "Feature", "id": 10309, "geometry": {"type": "Point", "coordinates": [125.338405766, 43.896550933]}, "properties": {"id": 10309, "name": "麦当劳长春亚泰大街中东新天地餐厅", "chain_slug": "mcdonalds", "category_slug": "supermarket", "address": "亚泰大街1138号中东新天地3层 W3F-11商铺麦当劳", "city": "长春市"}}, {"type": "Feature", "id": 10310, "geometry": {"type": "Point", "coordinates": [125.367886059, 43.914696049]}, "properties": {"id": 10310, "name": "麦当劳长春亚泰超市餐厅", "chain_slug": "mcdonalds", "category_slug": "supermarket", "address": "远达大街西东荣大路北富民雅居苑103号", "city": "长春市"}}, {"type": "Feature", "id": 10311, "geometry": {"type": "Point", "coordinates": [125.31766407, 43.907476646]}, "properties": {"id": 10311, "name": "长春站南进站口旁快捷小站", "chain_slug": "mcdonalds", "category_slug": "supermarket", "address": "长白路5路长春站JA04号商铺麦当劳", "city": "长春市"}}, {"type": "Feature", "id": 10312, "geometry": {"type": "Point", "coordinates": [125.315086306, 43.906533027]}, "properties": {"id": 10312, "name": "麦当劳长春季平餐厅", "chain_slug": "mcdonalds", "category_slug": "supermarket", "address": "辽宁路162号国商百货", "city": "长春市"}}, {"type": "Feature", "id": 10313, "geometry": {"type": "Point", "coordinates": [125.318108627, 43.908840595]}, "properties": {"id": 10313, "name": "麦当劳长春站候车大厅餐厅(候车大厅二楼A4-A5检票口楼上)", "chain_slug": "mcdonalds", "category_slug": "supermarket", "address": "长白路5号", "city": "长春市"}}, {"type": "Feature", "id": 10314, "geometry": {"type": "Point", "coordinates": [125.317597966, 43.909267827]}, "properties": {"id": 10314, "name": "长春站内16A检票口快捷小站", "chain_slug": "mcdonalds", "category_slug": "supermarket", "address": "长白路5号，铁路房号长房1号HA08号商铺", "city": "长春市"}}, {"type": "Feature", "id": 10315, "geometry": {"type": "Point", "coordinates": [125.316878381, 43.912804294]}, "properties": {"id": 10315, "name": "麦当劳长春宽城万达餐厅", "chain_slug": "mcdonalds", "category_slug": "supermarket", "address": "北人民大街155号万达广场1027号商铺", "city": "长春市"}}, {"type": "Feature", "id": 10316, "geometry": {"type": "Point", "coordinates": [125.329681616, 43.935433175]}, "properties": {"id": 10316, "name": "麦当劳长春庆丰路安华生活汇餐厅", "chain_slug": "mcdonalds", "category_slug": "supermarket", "address": "庆丰路与亚泰大街交汇西120米安华生活汇一楼", "city": "长春市"}}, {"type": "Feature", "id": 10317, "geometry": {"type": "Point", "coordinates": [125.391767914, 43.966021945]}, "properties": {"id": 10317, "name": "麦当劳长春盛北大街爱尚北湖得来速餐厅", "chain_slug": "mcdonalds", "category_slug": "supermarket", "address": "北湖盛北大街爱尚北湖东门", "city": "长春市"}}, {"type": "Feature", "id": 10318, "geometry": {"type": "Point", "coordinates": [126.547319037, 43.840355767]}, "properties": {"id": 10318, "name": "麦当劳吉林东方商厦餐厅", "chain_slug": "mcdonalds", "category_slug": "supermarket", "address": "东方商厦一层", "city": "吉林市"}}, {"type": "Feature", "id": 10319, "geometry": {"type": "Point", "coordinates": [126.554636761, 43.844270842]}, "properties": {"id": 10319, "name": "麦当劳吉林大东门餐厅", "chain_slug": "mcdonalds", "category_slug": "supermarket", "address": "河南路19号", "city": "吉林市"}}, {"type": "Feature", "id": 10320, "geometry": {"type": "Point", "coordinates": [126.557458132, 43.82968625]}, "properties": {"id": 10320, "name": "麦当劳吉林大街世纪广场餐厅", "chain_slug": "mcdonalds", "category_slug": "supermarket", "address": "船营区吉林大街", "city": "吉林市"}}, {"type": "Feature", "id": 10321, "geometry": {"type": "Point", "coordinates": [126.528521526, 43.8279362]}, "properties": {"id": 10321, "name": "麦当劳吉林中凯购物广场餐厅", "chain_slug": "mcdonalds", "category_slug": "supermarket", "address": "长春路1号", "city": "吉林市"}}, {"type": "Feature", "id": 10322, "geometry": {"type": "Point", "coordinates": [126.561050295, 43.844180349]}, "properties": {"id": 10322, "name": "麦当劳吉林财富广场餐厅", "chain_slug": "mcdonalds", "category_slug": "supermarket", "address": "重庆街1367号餐厅", "city": "吉林市"}}, {"type": "Feature", "id": 10323, "geometry": {"type": "Point", "coordinates": [126.555317022, 43.81193639]}, "properties": {"id": 10323, "name": "麦当劳吉林大街恒阳大饭店餐厅", "chain_slug": "mcdonalds", "category_slug": "supermarket", "address": "高新区厦门街1号", "city": "吉林市"}}, {"type": "Feature", "id": 10324, "geometry": {"type": "Point", "coordinates": [126.569937194, 43.856055331]}, "properties": {"id": 10324, "name": "麦当劳吉林站餐厅", "chain_slug": "mcdonalds", "category_slug": "supermarket", "address": "重庆路1号，铁路房号吉房103号", "city": "吉林市"}}, {"type": "Feature", "id": 10325, "geometry": {"type": "Point", "coordinates": [126.494879842, 43.817156736]}, "properties": {"id": 10325, "name": "麦当劳吉林长春路利群商场餐厅", "chain_slug": "mcdonalds", "category_slug": "supermarket", "address": "长春路利群市场综合楼", "city": "吉林市"}}, {"type": "Feature", "id": 10326, "geometry": {"type": "Point", "coordinates": [126.580370057, 43.869669743]}, "properties": {"id": 10326, "name": "麦当劳吉林解放北路大润发餐厅", "chain_slug": "mcdonalds", "category_slug": "supermarket", "address": "解放北路149号", "city": "吉林市"}}, {"type": "Feature", "id": 10327, "geometry": {"type": "Point", "coordinates": [114.935031762, 25.831790694]}, "properties": {"id": 10327, "name": "麦当劳赣州万盛购物中心餐厅", "chain_slug": "mcdonalds", "category_slug": "supermarket", "address": "兴国路9号", "city": "赣州市"}}, {"type": "Feature", "id": 10328, "geometry": {"type": "Point", "coordinates": [114.921712889, 25.821545706]}, "properties": {"id": 10328, "name": "麦当劳赣州第五大道餐厅", "chain_slug": "mcdonalds", "category_slug": "supermarket", "address": "琴江路与五指峰路交叉口处", "city": "赣州市"}}, {"type": "Feature", "id": 10329, "geometry": {"type": "Point", "coordinates": [114.928416801, 25.819626115]}, "properties": {"id": 10329, "name": "麦当劳赣州君尚购物中心餐厅", "chain_slug": "mcdonalds", "category_slug": "supermarket", "address": "长冈路君尚购物中心商场内2F", "city": "赣州市"}}, {"type": "Feature", "id": 10330, "geometry": {"type": "Point", "coordinates": [114.942627903, 25.823418517]}, "properties": {"id": 10330, "name": "麦当劳赣州泽丰环球汇餐厅", "chain_slug": "mcdonalds", "category_slug": "supermarket", "address": "章江新区赣江源大道与瑞金路交汇处宝能环球汇c101A-c101B商铺", "city": "赣州市"}}, {"type": "Feature", "id": 10331, "geometry": {"type": "Point", "coordinates": [114.921654163, 25.818757008]}, "properties": {"id": 10331, "name": "麦当劳赣州万象城餐厅", "chain_slug": "mcdonalds", "category_slug": "supermarket", "address": "万象城购物中心B1层", "city": "赣州市"}}, {"type": "Feature", "id": 10332, "geometry": {"type": "Point", "coordinates": [114.936436503, 25.851992333]}, "properties": {"id": 10332, "name": "麦当劳赣州步步高新天地餐厅", "chain_slug": "mcdonalds", "category_slug": "supermarket", "address": "红旗大道33号步步高新天地麦当劳", "city": "赣州市"}}, {"type": "Feature", "id": 10333, "geometry": {"type": "Point", "coordinates": [114.896022676, 25.844724049]}, "properties": {"id": 10333, "name": "麦当劳赣州经开嘉福万达金街餐厅", "chain_slug": "mcdonalds", "category_slug": "supermarket", "address": "经开区东江源大道与金岭东大道交汇处嘉福万达金街", "city": "赣州市"}}, {"type": "Feature", "id": 10334, "geometry": {"type": "Point", "coordinates": [117.947680849, 28.446443886]}, "properties": {"id": 10334, "name": "麦当劳上饶万达广场餐厅", "chain_slug": "mcdonalds", "category_slug": "supermarket", "address": "滨江路万达广场一层", "city": "上饶市"}}, {"type": "Feature", "id": 10335, "geometry": {"type": "Point", "coordinates": [117.918335452, 28.442240666]}, "properties": {"id": 10335, "name": "麦当劳上饶新城吾悦广场餐厅", "chain_slug": "mcdonalds", "category_slug": "supermarket", "address": "广信区旭日大道与凤凰大道交汇处", "city": "上饶市"}}, {"type": "Feature", "id": 10336, "geometry": {"type": "Point", "coordinates": [115.848168929, 28.687926962]}, "properties": {"id": 10336, "name": "麦当劳南昌地铁更新天地餐厅", "chain_slug": "mcdonalds", "category_slug": "supermarket", "address": "红谷滩区地铁1号线，2号线地铁大厦站9号口负一层地铁更新天地商业", "city": "南昌市"}}, {"type": "Feature", "id": 10337, "geometry": {"type": "Point", "coordinates": [115.842693622, 28.693727219]}, "properties": {"id": 10337, "name": "麦当劳南昌熙梦里(莱蒙都会)餐厅", "chain_slug": "mcdonalds", "category_slug": "supermarket", "address": "会展路888号熙梦里1层（卫东地铁站4号口）", "city": "南昌市"}}, {"type": "Feature", "id": 10338, "geometry": {"type": "Point", "coordinates": [115.845229391, 28.696986589]}, "properties": {"id": 10338, "name": "麦当劳南昌凤凰中大道(万达)餐厅", "chain_slug": "mcdonalds", "category_slug": "supermarket", "address": "会展路999号红谷滩万达广场二层", "city": "南昌市"}}, {"type": "Feature", "id": 10339, "geometry": {"type": "Point", "coordinates": [115.86083362, 28.70539633]}, "properties": {"id": 10339, "name": "麦当劳南昌万科地铁时代广场餐厅", "chain_slug": "mcdonalds", "category_slug": "supermarket", "address": "庐山南大道525号万科地铁时代广场", "city": "南昌市"}}, {"type": "Feature", "id": 10340, "geometry": {"type": "Point", "coordinates": [115.884311574, 28.67908175]}, "properties": {"id": 10340, "name": "麦当劳南昌裕滔广场餐厅", "chain_slug": "mcdonalds", "category_slug": "supermarket", "address": "中山路217号裕滔广场一楼A001号、二楼B001号商铺", "city": "南昌市"}}, {"type": "Feature", "id": 10341, "geometry": {"type": "Point", "coordinates": [115.84229844, 28.658328219]}, "properties": {"id": 10341, "name": "麦当劳南昌万象城餐厅", "chain_slug": "mcdonalds", "category_slug": "supermarket", "address": "红谷滩区赣江南大道50号万象城三层L390", "city": "南昌市"}}, {"type": "Feature", "id": 10342, "geometry": {"type": "Point", "coordinates": [115.832051093, 28.658409689]}, "properties": {"id": 10342, "name": "麦当劳南昌丰和南大道(山姆会员店)得来速餐厅", "chain_slug": "mcdonalds", "category_slug": "supermarket", "address": "丰和南大道1955号印象城购物中心", "city": "南昌市"}}, {"type": "Feature", "id": 10343, "geometry": {"type": "Point", "coordinates": [115.814461325, 28.683470231]}, "properties": {"id": 10343, "name": "麦当劳南昌新建中心餐厅", "chain_slug": "mcdonalds", "category_slug": "supermarket", "address": "长征西路南侧，长麦路西侧(新建中心)商业A2-1003商铺", "city": "南昌市"}}, {"type": "Feature", "id": 10344, "geometry": {"type": "Point", "coordinates": [115.897620378, 28.678655386]}, "properties": {"id": 10344, "name": "麦当劳南昌新牛广场餐厅", "chain_slug": "mcdonalds", "category_slug": "supermarket", "address": "中山路2号新牛广场一楼1006-1007，二楼2018-2019号商铺", "city": "南昌市"}}, {"type": "Feature", "id": 10345, "geometry": {"type": "Point", "coordinates": [116.008809732, 29.695761463]}, "properties": {"id": 10345, "name": "麦当劳九江万达广场餐厅", "chain_slug": "mcdonalds", "category_slug": "supermarket", "address": "德化路与会馆路交界处东北侧", "city": "九江市"}}, {"type": "Feature", "id": 10346, "geometry": {"type": "Point", "coordinates": [115.993104726, 29.711553776]}, "properties": {"id": 10346, "name": "麦当劳九江庐山南路餐厅", "chain_slug": "mcdonalds", "category_slug": "supermarket", "address": "庐山南路沃尔玛餐厅", "city": "九江市"}}, {"type": "Feature", "id": 10347, "geometry": {"type": "Point", "coordinates": [115.984841421, 29.726554051]}, "properties": {"id": 10347, "name": "麦当劳九江联盛餐厅", "chain_slug": "mcdonalds", "category_slug": "supermarket", "address": "浔阳路57号联盛购物广场F1层", "city": "九江市"}}, {"type": "Feature", "id": 10348, "geometry": {"type": "Point", "coordinates": [117.197246094, 29.31135014]}, "properties": {"id": 10348, "name": "麦当劳景德镇古镇天御餐厅", "chain_slug": "mcdonalds", "category_slug": "supermarket", "address": "昌江大道1730号华达超市古镇天御店一层麦当劳", "city": "景德镇市"}}, {"type": "Feature", "id": 10349, "geometry": {"type": "Point", "coordinates": [117.219646478, 29.296078029]}, "properties": {"id": 10349, "name": "麦当劳景德镇华润万家餐厅", "chain_slug": "mcdonalds", "category_slug": "supermarket", "address": "珠山大道1055号华润万家1层", "city": "景德镇市"}}, {"type": "Feature", "id": 10350, "geometry": {"type": "Point", "coordinates": [113.869107015, 27.633153737]}, "properties": {"id": 10350, "name": "麦当劳萍乡天虹购物中心餐厅", "chain_slug": "mcdonalds", "category_slug": "supermarket", "address": "萍安北大道与康庄路交汇处", "city": "萍乡市"}}, {"type": "Feature", "id": 10351, "geometry": {"type": "Point", "coordinates": [113.846062358, 27.645812095]}, "properties": {"id": 10351, "name": "麦当劳萍乡润达国际购物中心餐厅", "chain_slug": "mcdonalds", "category_slug": "supermarket", "address": "楚萍东路98号润达国际购物中心F1层", "city": "萍乡市"}}, {"type": "Feature", "id": 10352, "geometry": {"type": "Point", "coordinates": [114.419034399, 27.809612543]}, "properties": {"id": 10352, "name": "麦当劳宜春万达广场餐厅", "chain_slug": "mcdonalds", "category_slug": "supermarket", "address": "宜阳东大道6号", "city": "宜春市"}}, {"type": "Feature", "id": 10353, "geometry": {"type": "Point", "coordinates": [116.360304022, 27.958608738]}, "properties": {"id": 10353, "name": "麦当劳抚州硕果时代广场餐厅", "chain_slug": "mcdonalds", "category_slug": "supermarket", "address": "高新区金柅大道硕果时代购物中心1楼1021铺", "city": "抚州市"}}, {"type": "Feature", "id": 10354, "geometry": {"type": "Point", "coordinates": [116.354988651, 27.98923742]}, "properties": {"id": 10354, "name": "麦当劳抚州中环广场餐厅", "chain_slug": "mcdonalds", "category_slug": "supermarket", "address": "赣东大道68号一层临街1-10，1-11号商铺和二楼B-2号商铺麦当劳", "city": "抚州市"}}, {"type": "Feature", "id": 10355, "geometry": {"type": "Point", "coordinates": [116.3084618, 27.944956682]}, "properties": {"id": 10355, "name": "麦当劳抚州学府中央购物广场餐厅", "chain_slug": "mcdonalds", "category_slug": "supermarket", "address": "广场东路学府中央广场麦当劳", "city": "抚州市"}}, {"type": "Feature", "id": 10356, "geometry": {"type": "Point", "coordinates": [114.959958389, 27.090775977]}, "properties": {"id": 10356, "name": "麦当劳吉安城南天虹购物中心餐厅", "chain_slug": "mcdonalds", "category_slug": "supermarket", "address": "尚义路城南天虹购物广场麦当劳", "city": "吉安市"}}, {"type": "Feature", "id": 10357, "geometry": {"type": "Point", "coordinates": [114.979666193, 27.117490846]}, "properties": {"id": 10357, "name": "麦当劳吉安井冈山大道餐厅", "chain_slug": "mcdonalds", "category_slug": "supermarket", "address": "井冈山大道151号天虹商场一楼", "city": "吉安市"}}, {"type": "Feature", "id": 10358, "geometry": {"type": "Point", "coordinates": [114.905469984, 27.827181292]}, "properties": {"id": 10358, "name": "麦当劳新余太平洋广场餐厅", "chain_slug": "mcdonalds", "category_slug": "supermarket", "address": "北湖西路158号太平洋购物中心恒太城店", "city": "新余市"}}, {"type": "Feature", "id": 10359, "geometry": {"type": "Point", "coordinates": [114.934649425, 27.807117097]}, "properties": {"id": 10359, "name": "麦当劳新余地王城市广场餐厅", "chain_slug": "mcdonalds", "category_slug": "supermarket", "address": "城南胜利北路169号地王城市广场", "city": "新余市"}}, {"type": "Feature", "id": 10360, "geometry": {"type": "Point", "coordinates": [116.405469951, 39.909324712]}, "properties": {"id": 10360, "name": "麦当劳北京新王府井餐厅", "chain_slug": "mcdonalds", "category_slug": "supermarket", "address": "王府井大街200号北京工艺美术世界", "city": "北京市"}}, {"type": "Feature", "id": 10361, "geometry": {"type": "Point", "coordinates": [116.408867496, 39.907769422]}, "properties": {"id": 10361, "name": "麦当劳北京东长安街东方新天地餐厅", "chain_slug": "mcdonalds", "category_slug": "supermarket", "address": "东方广场B1层CC01A商铺", "city": "北京市"}}, {"type": "Feature", "id": 10362, "geometry": {"type": "Point", "coordinates": [116.40780896, 39.897832293]}, "properties": {"id": 10362, "name": "麦当劳北京祈年大街得来速餐厅", "chain_slug": "mcdonalds", "category_slug": "supermarket", "address": "东打磨厂街7号一层西南侧010340A商铺", "city": "北京市"}}, {"type": "Feature", "id": 10363, "geometry": {"type": "Point", "coordinates": [116.398270591, 39.913595757]}, "properties": {"id": 10363, "name": "麦当劳北京东华门大街(景泰蓝)餐厅", "chain_slug": "mcdonalds", "category_slug": "supermarket", "address": "东华门大街26号", "city": "北京市"}}, {"type": "Feature", "id": 10364, "geometry": {"type": "Point", "coordinates": [116.387858576, 39.898097898]}, "properties": {"id": 10364, "name": "麦当劳北京前门西街餐厅", "chain_slug": "mcdonalds", "category_slug": "supermarket", "address": "前门西大街正阳市场2号楼一层西侧部分商铺", "city": "北京市"}}, {"type": "Feature", "id": 10365, "geometry": {"type": "Point", "coordinates": [116.405681618, 39.912936645]}, "properties": {"id": 10365, "name": "麦当劳北京新东安二号餐厅", "chain_slug": "mcdonalds", "category_slug": "supermarket", "address": "王府井大街138号新东安广场地下一层", "city": "北京市"}}, {"type": "Feature", "id": 10366, "geometry": {"type": "Point", "coordinates": [116.412836262, 39.898366413]}, "properties": {"id": 10366, "name": "麦当劳北京崇文门外大街餐厅", "chain_slug": "mcdonalds", "category_slug": "supermarket", "address": "崇文门大街8号院1号楼", "city": "北京市"}}, {"type": "Feature", "id": 10367, "geometry": {"type": "Point", "coordinates": [116.407098441, 39.91367025]}, "properties": {"id": 10367, "name": "麦当劳北京王府井东街(澳门中心)餐厅", "chain_slug": "mcdonalds", "category_slug": "supermarket", "address": "王府井大街东街8号", "city": "北京市"}}, {"type": "Feature", "id": 10368, "geometry": {"type": "Point", "coordinates": [116.412360042, 39.896360157]}, "properties": {"id": 10368, "name": "麦当劳北京崇外新世界餐厅", "chain_slug": "mcdonalds", "category_slug": "supermarket", "address": "崇文门外大街3号", "city": "北京市"}}, {"type": "Feature", "id": 10369, "geometry": {"type": "Point", "coordinates": [116.411183585, 39.891157583]}, "properties": {"id": 10369, "name": "麦当劳北京磁器口餐厅", "chain_slug": "mcdonalds", "category_slug": "supermarket", "address": "珠市口东大街2号一层105、106号商铺", "city": "北京市"}}, {"type": "Feature", "id": 10370, "geometry": {"type": "Point", "coordinates": [109.468593156, 34.496618268]}, "properties": {"id": 10370, "name": "麦当劳渭南新洲时代广场餐厅", "chain_slug": "mcdonalds", "category_slug": "supermarket", "address": "仓程路与东风大街十字东北", "city": "渭南市"}}, {"type": "Feature", "id": 10371, "geometry": {"type": "Point", "coordinates": [109.487876461, 34.498292455]}, "properties": {"id": 10371, "name": "麦当劳渭南宏帆广场餐厅", "chain_slug": "mcdonalds", "category_slug": "supermarket", "address": "宏帆广场b馆", "city": "渭南市"}}, {"type": "Feature", "id": 10372, "geometry": {"type": "Point", "coordinates": [109.465342897, 36.634340758]}, "properties": {"id": 10372, "name": "麦当劳延安大学餐厅", "chain_slug": "mcdonalds", "category_slug": "supermarket", "address": "河庄坪镇嘉兴大街与公园北路交汇处麦当劳", "city": "延安市"}}, {"type": "Feature", "id": 10373, "geometry": {"type": "Point", "coordinates": [109.022152314, 32.694628775]}, "properties": {"id": 10373, "name": "麦当劳安康时代购物广场餐厅", "chain_slug": "mcdonalds", "category_slug": "supermarket", "address": "金州南路 95 号时代购物广场", "city": "安康市"}}, {"type": "Feature", "id": 10374, "geometry": {"type": "Point", "coordinates": [108.987946144, 32.698669572]}, "properties": {"id": 10374, "name": "麦当劳安康万乐城餐厅", "chain_slug": "mcdonalds", "category_slug": "supermarket", "address": "高新区安康大道万乐城", "city": "安康市"}}, {"type": "Feature", "id": 10375, "geometry": {"type": "Point", "coordinates": [107.227536391, 34.34790249]}, "properties": {"id": 10375, "name": "麦当劳宝鸡高新区方圆荟餐厅", "chain_slug": "mcdonalds", "category_slug": "supermarket", "address": "高新开发区高新大道59号方圆荟麦当劳餐厅", "city": "宝鸡市"}}, {"type": "Feature", "id": 10376, "geometry": {"type": "Point", "coordinates": [108.710956173, 34.337659348]}, "properties": {"id": 10376, "name": "麦当劳咸阳人民路餐厅", "chain_slug": "mcdonalds", "category_slug": "supermarket", "address": "人民中路6号", "city": "咸阳市"}}, {"type": "Feature", "id": 10377, "geometry": {"type": "Point", "coordinates": [108.687099625, 34.342333496]}, "properties": {"id": 10377, "name": "麦当劳咸阳丽彩潮流港餐厅", "chain_slug": "mcdonalds", "category_slug": "supermarket", "address": "咸阳玉泉路9号丽彩潮流港一层 02、23 号、二层02号商铺", "city": "咸阳市"}}, {"type": "Feature", "id": 10378, "geometry": {"type": "Point", "coordinates": [108.728344204, 34.318477956]}, "properties": {"id": 10378, "name": "麦当劳咸阳金泰丝路花城餐厅", "chain_slug": "mcdonalds", "category_slug": "supermarket", "address": "西咸新区西咸大道金泰丝路花城一层F1-30号麦当劳商铺", "city": "咸阳市"}}, {"type": "Feature", "id": 10379, "geometry": {"type": "Point", "coordinates": [108.675445206, 34.328308722]}, "properties": {"id": 10379, "name": "麦当劳咸阳彩虹郦城餐厅", "chain_slug": "mcdonalds", "category_slug": "supermarket", "address": "彩虹一路龙湖彩虹郦城PARK商业区", "city": "咸阳市"}}, {"type": "Feature", "id": 10380, "geometry": {"type": "Point", "coordinates": [109.747565869, 38.288296476]}, "properties": {"id": 10380, "name": "麦当劳榆林国贸2餐厅", "chain_slug": "mcdonalds", "category_slug": "supermarket", "address": "新建南路191号", "city": "榆林市"}}, {"type": "Feature", "id": 10381, "geometry": {"type": "Point", "coordinates": [109.733363986, 38.266469013]}, "properties": {"id": 10381, "name": "麦当劳榆林悦乐新天地餐厅", "chain_slug": "mcdonalds", "category_slug": "supermarket", "address": "文化南路201号悦乐购物广场", "city": "榆林市"}}, {"type": "Feature", "id": 10382, "geometry": {"type": "Point", "coordinates": [109.748281116, 38.24845479]}, "properties": {"id": 10382, "name": "麦当劳榆林万达广场餐厅", "chain_slug": "mcdonalds", "category_slug": "supermarket", "address": "榆林市高新技术产业园区长兴路175号万达广场一层1022B,1023号商铺", "city": "榆林市"}}, {"type": "Feature", "id": 10383, "geometry": {"type": "Point", "coordinates": [108.932524442, 34.339714455]}, "properties": {"id": 10383, "name": "麦当劳西安汉神购物广场餐厅", "chain_slug": "mcdonalds", "category_slug": "supermarket", "address": "凤城八路168号汉神购物广场", "city": "西安市"}}, {"type": "Feature", "id": 10384, "geometry": {"type": "Point", "coordinates": [108.926112405, 34.342020548]}, "properties": {"id": 10384, "name": "麦当劳西安长和卜蜂中心餐厅", "chain_slug": "mcdonalds", "category_slug": "supermarket", "address": "经济技术开发区凤城八路180号长和国际", "city": "西安市"}}, {"type": "Feature", "id": 10385, "geometry": {"type": "Point", "coordinates": [108.938116541, 34.363992811]}, "properties": {"id": 10385, "name": "麦当劳西安首创未央里餐厅", "chain_slug": "mcdonalds", "category_slug": "supermarket", "address": "凤城北路58号", "city": "西安市"}}, {"type": "Feature", "id": 10386, "geometry": {"type": "Point", "coordinates": [108.960064113, 34.342802262]}, "properties": {"id": 10386, "name": "麦当劳西安水晶卡芭拉餐厅", "chain_slug": "mcdonalds", "category_slug": "supermarket", "address": "经济技术开发区凤城八路以北渭滨路以西", "city": "西安市"}}, {"type": "Feature", "id": 10387, "geometry": {"type": "Point", "coordinates": [108.941475281, 34.322007184]}, "properties": {"id": 10387, "name": "麦当劳西安艾斯广场餐厅", "chain_slug": "mcdonalds", "category_slug": "supermarket", "address": "艾斯广场", "city": "西安市"}}, {"type": "Feature", "id": 10388, "geometry": {"type": "Point", "coordinates": [108.942687864, 34.319435008]}, "properties": {"id": 10388, "name": "麦当劳西安凤城二路餐厅", "chain_slug": "mcdonalds", "category_slug": "supermarket", "address": "经开区凤城二路10号", "city": "西安市"}}, {"type": "Feature", "id": 10389, "geometry": {"type": "Point", "coordinates": [108.934160295, 34.375818414]}, "properties": {"id": 10389, "name": "麦当劳西安北客站南广场餐厅", "chain_slug": "mcdonalds", "category_slug": "supermarket", "address": "北客站南1B检票口上方", "city": "西安市"}}, {"type": "Feature", "id": 10390, "geometry": {"type": "Point", "coordinates": [108.934446188, 34.380207593]}, "properties": {"id": 10390, "name": "麦当劳西安北客站北广场餐厅", "chain_slug": "mcdonalds", "category_slug": "supermarket", "address": "33A检票口旁扶梯上二楼，美食汇隔壁", "city": "西安市"}}, {"type": "Feature", "id": 10391, "geometry": {"type": "Point", "coordinates": [108.974896913, 34.328668601]}, "properties": {"id": 10391, "name": "麦当劳西安红旗公园(永隆路独立建筑)得来速餐厅", "chain_slug": "mcdonalds", "category_slug": "supermarket", "address": "永隆路独立建筑", "city": "西安市"}}, {"type": "Feature", "id": 10392, "geometry": {"type": "Point", "coordinates": [108.980442345, 34.345748106]}, "properties": {"id": 10392, "name": "麦当劳西安龙湖未央天街餐厅", "chain_slug": "mcdonalds", "category_slug": "supermarket", "address": "凤城八路与景云路交叉口东北方向", "city": "西安市"}}, {"type": "Feature", "id": 10393, "geometry": {"type": "Point", "coordinates": [108.925770122, 34.305446117]}, "properties": {"id": 10393, "name": "麦当劳西安君悦荟得来速餐厅", "chain_slug": "mcdonalds", "category_slug": "supermarket", "address": "明光路君悦荟", "city": "西安市"}}, {"type": "Feature", "id": 10394, "geometry": {"type": "Point", "coordinates": [108.942604173, 34.306505063]}, "properties": {"id": 10394, "name": "麦当劳西安荣民时代广场餐厅", "chain_slug": "mcdonalds", "category_slug": "supermarket", "address": "未央路东侧玄武路北", "city": "西安市"}}, {"type": "Feature", "id": 10395, "geometry": {"type": "Point", "coordinates": [108.906912697, 34.290756868]}, "properties": {"id": 10395, "name": "麦当劳西安龙毓生活广场餐厅", "chain_slug": "mcdonalds", "category_slug": "supermarket", "address": "劳动北路362号龙毓生活广场", "city": "西安市"}}, {"type": "Feature", "id": 10396, "geometry": {"type": "Point", "coordinates": [108.915564067, 34.286381237]}, "properties": {"id": 10396, "name": "麦当劳西安老城根餐厅", "chain_slug": "mcdonalds", "category_slug": "supermarket", "address": "星火路与大兴西路西南角", "city": "西安市"}}, {"type": "Feature", "id": 10397, "geometry": {"type": "Point", "coordinates": [108.967824538, 34.316026418]}, "properties": {"id": 10397, "name": "麦当劳西安市太华北路餐厅", "chain_slug": "mcdonalds", "category_slug": "supermarket", "address": "北二环与太华北路交汇处向北200米西安大明宫万达广场2层2005-2006", "city": "西安市"}}, {"type": "Feature", "id": 10398, "geometry": {"type": "Point", "coordinates": [108.989596587, 34.317396129]}, "properties": {"id": 10398, "name": "麦当劳西安红星美凯龙得来速餐厅", "chain_slug": "mcdonalds", "category_slug": "supermarket", "address": "北辰路688号", "city": "西安市"}}, {"type": "Feature", "id": 10399, "geometry": {"type": "Point", "coordinates": [108.990793517, 34.304320413]}, "properties": {"id": 10399, "name": "麦当劳西安U Park餐厅", "chain_slug": "mcdonalds", "category_slug": "supermarket", "address": "东二环6599号", "city": "西安市"}}, {"type": "Feature", "id": 10400, "geometry": {"type": "Point", "coordinates": [108.979334183, 34.295803611]}, "properties": {"id": 10400, "name": "麦当劳西安紫薇东进得来速餐厅", "chain_slug": "mcdonalds", "category_slug": "supermarket", "address": "含元路北侧太和路和八府庄三坊交汇处", "city": "西安市"}}, {"type": "Feature", "id": 10401, "geometry": {"type": "Point", "coordinates": [109.008480901, 34.30910761]}, "properties": {"id": 10401, "name": "麦当劳西安西岸国际花园餐厅", "chain_slug": "mcdonalds", "category_slug": "supermarket", "address": "广运潭大道77号西岸国际花园四期", "city": "西安市"}}, {"type": "Feature", "id": 10402, "geometry": {"type": "Point", "coordinates": [109.031660964, 34.322599045]}, "properties": {"id": 10402, "name": "麦当劳西安浐灞自然界餐厅", "chain_slug": "mcdonalds", "category_slug": "supermarket", "address": "浐灞大道1228号 U Plaza购物中心一层", "city": "西安市"}}, {"type": "Feature", "id": 10403, "geometry": {"type": "Point", "coordinates": [109.007303936, 34.285169595]}, "properties": {"id": 10403, "name": "麦当劳西安长乐天街餐厅", "chain_slug": "mcdonalds", "category_slug": "supermarket", "address": "龙湖长乐天街负一层B馆12商铺", "city": "西安市"}}, {"type": "Feature", "id": 10404, "geometry": {"type": "Point", "coordinates": [109.038698671, 34.279628138]}, "properties": {"id": 10404, "name": "麦当劳西安凯德广场二期餐厅", "chain_slug": "mcdonalds", "category_slug": "supermarket", "address": "浐河东岸东三环与长乐东路交汇处西北角凯德广场二期", "city": "西安市"}}, {"type": "Feature", "id": 10405, "geometry": {"type": "Point", "coordinates": [108.958426568, 34.277111119]}, "properties": {"id": 10405, "name": "麦当劳西安火车站餐厅", "chain_slug": "mcdonalds", "category_slug": "supermarket", "address": "解放路181号", "city": "西安市"}}, {"type": "Feature", "id": 10406, "geometry": {"type": "Point", "coordinates": [108.914298356, 34.270541841]}, "properties": {"id": 10406, "name": "麦当劳西安恒天国际城餐厅", "chain_slug": "mcdonalds", "category_slug": "supermarket", "address": "大庆路66号恒和智系智慧产业园底商 麦当劳", "city": "西安市"}}, {"type": "Feature", "id": 10407, "geometry": {"type": "Point", "coordinates": [108.922312841, 34.262001631]}, "properties": {"id": 10407, "name": "麦当劳西安儿童医院(中信银行西大街支行)餐厅", "chain_slug": "mcdonalds", "category_slug": "supermarket", "address": "西大街359号聚源小区A区唐元宫一层商铺", "city": "西安市"}}, {"type": "Feature", "id": 10408, "geometry": {"type": "Point", "coordinates": [108.943074649, 34.271005313]}, "properties": {"id": 10408, "name": "麦当劳西安北大街地铁站下沉广场餐厅", "chain_slug": "mcdonalds", "category_slug": "supermarket", "address": "北大街地铁站下沉广场", "city": "西安市"}}, {"type": "Feature", "id": 10409, "geometry": {"type": "Point", "coordinates": [108.94168346, 34.263235184]}, "properties": {"id": 10409, "name": "麦当劳西安北大街餐厅", "chain_slug": "mcdonalds", "category_slug": "supermarket", "address": "北大街28号", "city": "西安市"}}, {"type": "Feature", "id": 10410, "geometry": {"type": "Point", "coordinates": [108.939162965, 34.261199762]}, "properties": {"id": 10410, "name": "麦当劳西安钟鼓楼餐厅", "chain_slug": "mcdonalds", "category_slug": "supermarket", "address": "西大街1号钟鼓楼广场", "city": "西安市"}}, {"type": "Feature", "id": 10411, "geometry": {"type": "Point", "coordinates": [108.877622498, 34.25379022]}, "properties": {"id": 10411, "name": "麦当劳西安元谷水滴餐厅", "chain_slug": "mcdonalds", "category_slug": "supermarket", "address": "昆明路616号", "city": "西安市"}}, {"type": "Feature", "id": 10412, "geometry": {"type": "Point", "coordinates": [108.904157187, 34.246762745]}, "properties": {"id": 10412, "name": "麦当劳西安劳动南路餐厅", "chain_slug": "mcdonalds", "category_slug": "supermarket", "address": "劳动南路118号大唐西市一期九宫格金市广场二格负一层", "city": "西安市"}}, {"type": "Feature", "id": 10413, "geometry": {"type": "Point", "coordinates": [108.828190505, 34.289968663]}, "properties": {"id": 10413, "name": "麦当劳西安汉唐新都汇餐厅", "chain_slug": "mcdonalds", "category_slug": "supermarket", "address": "武警路以西、三桥新街以南 汉唐新都汇一层", "city": "西安市"}}, {"type": "Feature", "id": 10414, "geometry": {"type": "Point", "coordinates": [108.913705524, 34.242535278]}, "properties": {"id": 10414, "name": "麦当劳西安友谊西路餐厅", "chain_slug": "mcdonalds", "category_slug": "supermarket", "address": "友谊西路246号二层", "city": "西安市"}}, {"type": "Feature", "id": 10415, "geometry": {"type": "Point", "coordinates": [108.873365166, 34.246221421]}, "properties": {"id": 10415, "name": "麦当劳西安晶鑫广场E22空间餐厅", "chain_slug": "mcdonalds", "category_slug": "supermarket", "address": "莲湖区大寨路4号晶鑫华庭", "city": "西安市"}}, {"type": "Feature", "id": 10416, "geometry": {"type": "Point", "coordinates": [108.888856738, 34.239012341]}, "properties": {"id": 10416, "name": "麦当劳西安大都荟餐厅", "chain_slug": "mcdonalds", "category_slug": "supermarket", "address": "科技路与高新四路十字西北角", "city": "西安市"}}, {"type": "Feature", "id": 10417, "geometry": {"type": "Point", "coordinates": [108.86867471, 34.23900232]}, "properties": {"id": 10417, "name": "麦当劳西安科技路餐厅", "chain_slug": "mcdonalds", "category_slug": "supermarket", "address": "科技路２５９号", "city": "西安市"}}, {"type": "Feature", "id": 10418, "geometry": {"type": "Point", "coordinates": [108.90260848, 34.236582015]}, "properties": {"id": 10418, "name": "麦当劳西安希格玛大厦餐厅", "chain_slug": "mcdonalds", "category_slug": "supermarket", "address": "高新路25号信力大厦", "city": "西安市"}}, {"type": "Feature", "id": 10419, "geometry": {"type": "Point", "coordinates": [108.899473316, 34.23346772]}, "properties": {"id": 10419, "name": "麦当劳西安高新世纪金花餐厅", "chain_slug": "mcdonalds", "category_slug": "supermarket", "address": "高新区科技路 33号", "city": "西安市"}}, {"type": "Feature", "id": 10420, "geometry": {"type": "Point", "coordinates": [108.86749069, 34.227932063]}, "properties": {"id": 10420, "name": "麦当劳西安UU Mall餐厅", "chain_slug": "mcdonalds", "category_slug": "supermarket", "address": "丈八北路228号", "city": "西安市"}}, {"type": "Feature", "id": 10421, "geometry": {"type": "Point", "coordinates": [108.88027862, 34.224735073]}, "properties": {"id": 10421, "name": "麦当劳西安融城云谷餐厅", "chain_slug": "mcdonalds", "category_slug": "supermarket", "address": "高新区科技三路57号融城云谷C座一层CIF06商铺", "city": "西安市"}}, {"type": "Feature", "id": 10422, "geometry": {"type": "Point", "coordinates": [108.889043129, 34.221210904]}, "properties": {"id": 10422, "name": "麦当劳西安金域国际餐厅", "chain_slug": "mcdonalds", "category_slug": "supermarket", "address": "高新一路40号万科金域国际一层", "city": "西安市"}}, {"type": "Feature", "id": 10423, "geometry": {"type": "Point", "coordinates": [108.808001832, 34.261008176]}, "properties": {"id": 10423, "name": "麦当劳西安沣东自贸新天地得来速餐厅", "chain_slug": "mcdonalds", "category_slug": "supermarket", "address": "红光大道以南广场西环路以东西里建筑物W-Z001号商铺", "city": "西安市"}}, {"type": "Feature", "id": 10424, "geometry": {"type": "Point", "coordinates": [108.834871931, 34.212174127]}, "properties": {"id": 10424, "name": "麦当劳西安环普产业园餐厅", "chain_slug": "mcdonalds", "category_slug": "supermarket", "address": "天谷八路221号", "city": "西安市"}}, {"type": "Feature", "id": 10425, "geometry": {"type": "Point", "coordinates": [108.868134542, 34.211045782]}, "properties": {"id": 10425, "name": "麦当劳西安国宾天街餐厅", "chain_slug": "mcdonalds", "category_slug": "supermarket", "address": "高新区国宾天街", "city": "西安市"}}, {"type": "Feature", "id": 10426, "geometry": {"type": "Point", "coordinates": [108.887585019, 34.212906285]}, "properties": {"id": 10426, "name": "麦当劳西安高新C.PARK得来速餐厅", "chain_slug": "mcdonalds", "category_slug": "supermarket", "address": "高新区万达天鼎", "city": "西安市"}}, {"type": "Feature", "id": 10427, "geometry": {"type": "Point", "coordinates": [108.877441042, 34.196196827]}, "properties": {"id": 10427, "name": "麦当劳西安高新益田餐厅", "chain_slug": "mcdonalds", "category_slug": "supermarket", "address": "高新区锦业路7号 1层06号/室商铺", "city": "西安市"}}, {"type": "Feature", "id": 10428, "geometry": {"type": "Point", "coordinates": [108.886995267, 34.210577849]}, "properties": {"id": 10428, "name": "麦当劳西安高新万达餐厅", "chain_slug": "mcdonalds", "category_slug": "supermarket", "address": "高新区木塔寨西路719号万达广场", "city": "西安市"}}, {"type": "Feature", "id": 10429, "geometry": {"type": "Point", "coordinates": [108.912886047, 34.226426827]}, "properties": {"id": 10429, "name": "麦当劳西安太白南路地铁站餐厅", "chain_slug": "mcdonalds", "category_slug": "supermarket", "address": "科技路民生家乐", "city": "西安市"}}, {"type": "Feature", "id": 10430, "geometry": {"type": "Point", "coordinates": [108.899706886, 34.199239736]}, "properties": {"id": 10430, "name": "麦当劳西安立丰城餐厅", "chain_slug": "mcdonalds", "category_slug": "supermarket", "address": "丈八路与子午大道西南角", "city": "西安市"}}, {"type": "Feature", "id": 10431, "geometry": {"type": "Point", "coordinates": [108.918182617, 34.236982562]}, "properties": {"id": 10431, "name": "麦当劳西安太白印象城餐厅", "chain_slug": "mcdonalds", "category_slug": "supermarket", "address": "二环南路西段155号印象城B1-5", "city": "西安市"}}, {"type": "Feature", "id": 10432, "geometry": {"type": "Point", "coordinates": [108.93241153, 34.231359675]}, "properties": {"id": 10432, "name": "麦当劳西安楷模广场餐厅", "chain_slug": "mcdonalds", "category_slug": "supermarket", "address": "南二环西段58号成长大厦楷模广场一层", "city": "西安市"}}, {"type": "Feature", "id": 10433, "geometry": {"type": "Point", "coordinates": [108.936107809, 34.20756504]}, "properties": {"id": 10433, "name": "麦当劳西安安义坊餐厅", "chain_slug": "mcdonalds", "category_slug": "supermarket", "address": "明德门遗址公园北侧明德盛荟一层麦当劳", "city": "西安市"}}, {"type": "Feature", "id": 10434, "geometry": {"type": "Point", "coordinates": [108.924705969, 34.199578657]}, "properties": {"id": 10434, "name": "麦当劳西安丈八路餐厅", "chain_slug": "mcdonalds", "category_slug": "supermarket", "address": "丈八东路世家星城小区人人乐超市8A", "city": "西安市"}}, {"type": "Feature", "id": 10435, "geometry": {"type": "Point", "coordinates": [108.942582035, 34.223189589]}, "properties": {"id": 10435, "name": "麦当劳西安华旗国际餐厅", "chain_slug": "mcdonalds", "category_slug": "supermarket", "address": "长安中路99号华旗国际一层", "city": "西安市"}}, {"type": "Feature", "id": 10436, "geometry": {"type": "Point", "coordinates": [108.942846904, 34.227259598]}, "properties": {"id": 10436, "name": "麦当劳西安小寨金莎餐厅", "chain_slug": "mcdonalds", "category_slug": "supermarket", "address": "小寨长安中路65号金广场莎国际", "city": "西安市"}}, {"type": "Feature", "id": 10437, "geometry": {"type": "Point", "coordinates": [108.8983788, 34.174729816]}, "properties": {"id": 10437, "name": "麦当劳西安宜家荟聚中心餐厅", "chain_slug": "mcdonalds", "category_slug": "supermarket", "address": "高新区沈家桥西路宜家荟聚LJ 1层麦当劳", "city": "西安市"}}, {"type": "Feature", "id": 10438, "geometry": {"type": "Point", "coordinates": [108.864253416, 34.17190905]}, "properties": {"id": 10438, "name": "麦当劳西安阳光城餐厅", "chain_slug": "mcdonalds", "category_slug": "supermarket", "address": "高新区博士路与西部大道交汇处阳光天地一层", "city": "西安市"}}, {"type": "Feature", "id": 10439, "geometry": {"type": "Point", "coordinates": [108.89365812, 34.153433114]}, "properties": {"id": 10439, "name": "麦当劳西安邮电大学长安校区餐厅", "chain_slug": "mcdonalds", "category_slug": "supermarket", "address": "邮电大学食堂", "city": "西安市"}}, {"type": "Feature", "id": 10440, "geometry": {"type": "Point", "coordinates": [108.86890383, 34.139560186]}, "properties": {"id": 10440, "name": "麦当劳西安外国语大学长安校区餐厅", "chain_slug": "mcdonalds", "category_slug": "supermarket", "address": "西安市长安区文苑南路6号", "city": "西安市"}}, {"type": "Feature", "id": 10441, "geometry": {"type": "Point", "coordinates": [108.907589481, 34.159173185]}, "properties": {"id": 10441, "name": "麦当劳西安Gogo街区餐厅", "chain_slug": "mcdonalds", "category_slug": "supermarket", "address": "西长安街579号", "city": "西安市"}}, {"type": "Feature", "id": 10442, "geometry": {"type": "Point", "coordinates": [108.927331095, 34.164098636]}, "properties": {"id": 10442, "name": "麦当劳西安长百新市生活购物广场餐厅", "chain_slug": "mcdonalds", "category_slug": "supermarket", "address": "韦曲北街长百新市购物广场", "city": "西安市"}}, {"type": "Feature", "id": 10443, "geometry": {"type": "Point", "coordinates": [108.952286732, 34.174515092]}, "properties": {"id": 10443, "name": "麦当劳西安卡布奇诺国际社区得来速餐厅", "chain_slug": "mcdonalds", "category_slug": "supermarket", "address": "航天大道99号卡布奇诺国际社区南侧", "city": "西安市"}}, {"type": "Feature", "id": 10444, "geometry": {"type": "Point", "coordinates": [108.951415326, 34.203588588]}, "properties": {"id": 10444, "name": "麦当劳西安曲江创客大街(upway)餐厅", "chain_slug": "mcdonalds", "category_slug": "supermarket", "address": "曲江新区翠华路1688号", "city": "西安市"}}, {"type": "Feature", "id": 10445, "geometry": {"type": "Point", "coordinates": [108.96766303, 34.172570641]}, "properties": {"id": 10445, "name": "麦当劳西安星座广场餐厅", "chain_slug": "mcdonalds", "category_slug": "supermarket", "address": "航天大道与神舟四路十字西南角", "city": "西安市"}}, {"type": "Feature", "id": 10446, "geometry": {"type": "Point", "coordinates": [108.970996847, 34.183484923]}, "properties": {"id": 10446, "name": "麦当劳西安曲江嘉德汇餐厅", "chain_slug": "mcdonalds", "category_slug": "supermarket", "address": "公田一路411号", "city": "西安市"}}, {"type": "Feature", "id": 10447, "geometry": {"type": "Point", "coordinates": [108.940160671, 34.143339019]}, "properties": {"id": 10447, "name": "麦当劳西安韦曲南站餐厅", "chain_slug": "mcdonalds", "category_slug": "supermarket", "address": "长安区申店新村地铁2号线韦曲南站B口惠欧购物广场N88号店铺", "city": "西安市"}}, {"type": "Feature", "id": 10448, "geometry": {"type": "Point", "coordinates": [108.925769202, 34.118758785]}, "properties": {"id": 10448, "name": "麦当劳西安财经大学长安校区餐厅", "chain_slug": "mcdonalds", "category_slug": "supermarket", "address": "常宁大街360号西安财经大学长安校区双穗苑食堂1层麦当劳餐厅", "city": "西安市"}}, {"type": "Feature", "id": 10449, "geometry": {"type": "Point", "coordinates": [108.832220135, 34.130234831]}, "properties": {"id": 10449, "name": "麦当劳西安电子科技大学餐厅", "chain_slug": "mcdonalds", "category_slug": "supermarket", "address": "西沣路兴隆段266号", "city": "西安市"}}, {"type": "Feature", "id": 10450, "geometry": {"type": "Point", "coordinates": [108.927971251, 34.243176823]}, "properties": {"id": 10450, "name": "麦当劳西安盛安广场餐厅", "chain_slug": "mcdonalds", "category_slug": "supermarket", "address": "含光北路111号A栋1层1001号商铺", "city": "西安市"}}, {"type": "Feature", "id": 10451, "geometry": {"type": "Point", "coordinates": [108.942623398, 34.24176068]}, "properties": {"id": 10451, "name": "麦当劳西安大话南门餐厅", "chain_slug": "mcdonalds", "category_slug": "supermarket", "address": "南稍门十字东南角", "city": "西安市"}}, {"type": "Feature", "id": 10452, "geometry": {"type": "Point", "coordinates": [108.944308539, 34.250540948]}, "properties": {"id": 10452, "name": "麦当劳西安合生汇餐厅", "chain_slug": "mcdonalds", "category_slug": "supermarket", "address": "南大街合生汇", "city": "西安市"}}, {"type": "Feature", "id": 10453, "geometry": {"type": "Point", "coordinates": [108.944019582, 34.260936466]}, "properties": {"id": 10453, "name": "麦当劳西安开元餐厅", "chain_slug": "mcdonalds", "category_slug": "supermarket", "address": "东大街解放市场6号首层", "city": "西安市"}}, {"type": "Feature", "id": 10454, "geometry": {"type": "Point", "coordinates": [108.958191045, 34.245285358]}, "properties": {"id": 10454, "name": "麦当劳西安李家村万达餐厅", "chain_slug": "mcdonalds", "category_slug": "supermarket", "address": "雁塔北路李家村万达一层", "city": "西安市"}}, {"type": "Feature", "id": 10455, "geometry": {"type": "Point", "coordinates": [108.959233228, 34.269553192]}, "properties": {"id": 10455, "name": "麦当劳西安民乐万达餐厅", "chain_slug": "mcdonalds", "category_slug": "supermarket", "address": "新城区解放路111号万达广场4层5层536号", "city": "西安市"}}, {"type": "Feature", "id": 10456, "geometry": {"type": "Point", "coordinates": [108.958279424, 34.236752348]}, "properties": {"id": 10456, "name": "麦当劳西安雁塔路餐厅", "chain_slug": "mcdonalds", "category_slug": "supermarket", "address": "雁塔路中段68号", "city": "西安市"}}, {"type": "Feature", "id": 10457, "geometry": {"type": "Point", "coordinates": [108.96898764, 34.27117465]}, "properties": {"id": 10457, "name": "麦当劳西安朝阳门益田假日餐厅", "chain_slug": "mcdonalds", "category_slug": "supermarket", "address": "长乐西路166号朝阳门益田假日世界", "city": "西安市"}}, {"type": "Feature", "id": 10458, "geometry": {"type": "Point", "coordinates": [108.980991319, 34.246423877]}, "properties": {"id": 10458, "name": "麦当劳西安交通大学（兴庆校区）餐厅", "chain_slug": "mcdonalds", "category_slug": "supermarket", "address": "咸宁西路28号西安交通大学校内康桥苑3层", "city": "西安市"}}, {"type": "Feature", "id": 10459, "geometry": {"type": "Point", "coordinates": [108.977606613, 34.269407795]}, "properties": {"id": 10459, "name": "麦当劳西安长乐路餐厅", "chain_slug": "mcdonalds", "category_slug": "supermarket", "address": "长乐西路２１８号西北商贸中心内东北角负一楼", "city": "西安市"}}, {"type": "Feature", "id": 10460, "geometry": {"type": "Point", "coordinates": [108.992231958, 34.248853023]}, "properties": {"id": 10460, "name": "麦当劳西安金花南路餐厅", "chain_slug": "mcdonalds", "category_slug": "supermarket", "address": "金花南路５９号", "city": "西安市"}}, {"type": "Feature", "id": 10461, "geometry": {"type": "Point", "coordinates": [108.959473209, 34.22254353]}, "properties": {"id": 10461, "name": "麦当劳西安大雁塔北广场餐厅", "chain_slug": "mcdonalds", "category_slug": "supermarket", "address": "大雁塔北广场西侧D栋", "city": "西安市"}}, {"type": "Feature", "id": 10462, "geometry": {"type": "Point", "coordinates": [109.034005483, 34.263939664]}, "properties": {"id": 10462, "name": "麦当劳西安龙湖天街餐厅", "chain_slug": "mcdonalds", "category_slug": "supermarket", "address": "浐灞生态区长田路以东、高楼路以北香缇天街1F层1F", "city": "西安市"}}, {"type": "Feature", "id": 10463, "geometry": {"type": "Point", "coordinates": [109.051735104, 34.275442007]}, "properties": {"id": 10463, "name": "麦当劳西安华夏幸福里餐厅", "chain_slug": "mcdonalds", "category_slug": "supermarket", "address": "纺西街2572号 半坡地铁C口 华夏幸福里购物广场一层", "city": "西安市"}}, {"type": "Feature", "id": 10464, "geometry": {"type": "Point", "coordinates": [109.001942162, 34.24670425]}, "properties": {"id": 10464, "name": "麦当劳西安上和商业广场餐厅", "chain_slug": "mcdonalds", "category_slug": "supermarket", "address": "公园南路9号麦当劳", "city": "西安市"}}, {"type": "Feature", "id": 10465, "geometry": {"type": "Point", "coordinates": [108.984286683, 34.373565375]}, "properties": {"id": 10465, "name": "麦当劳西安碧桂园云府底商得来速餐厅", "chain_slug": "mcdonalds", "category_slug": "supermarket", "address": "浐灞生态区学三路以东、灞浦二路以南碧桂园·凤凰城云府64幢1层10107、10108号商铺", "city": "西安市"}}, {"type": "Feature", "id": 10466, "geometry": {"type": "Point", "coordinates": [108.991203535, 34.401763968]}, "properties": {"id": 10466, "name": "麦当劳西安远洋御山水得来速餐厅", "chain_slug": "mcdonalds", "category_slug": "supermarket", "address": "北辰路远洋御山水", "city": "西安市"}}, {"type": "Feature", "id": 10467, "geometry": {"type": "Point", "coordinates": [107.02144484, 33.076602084]}, "properties": {"id": 10467, "name": "麦当劳汉中万邦广场(太白路)餐厅", "chain_slug": "mcdonalds", "category_slug": "supermarket", "address": "天汉大道与太白路十字西北角万邦时代广场", "city": "汉中市"}}, {"type": "Feature", "id": 10468, "geometry": {"type": "Point", "coordinates": [106.991884542, 33.074569349]}, "properties": {"id": 10468, "name": "麦当劳汉中新城吾悦餐厅", "chain_slug": "mcdonalds", "category_slug": "supermarket", "address": "滨江新区滨江西路与西新街东北角新城吾悦广场C地块C-10#楼1层1036、1037号商铺", "city": "汉中市"}}, {"type": "Feature", "id": 10469, "geometry": {"type": "Point", "coordinates": [112.729965108, 37.703726429]}, "properties": {"id": 10469, "name": "麦当劳晋中安宁街店餐厅", "chain_slug": "mcdonalds", "category_slug": "supermarket", "address": "新建北路与安宁街西南角", "city": "晋中市"}}, {"type": "Feature", "id": 10470, "geometry": {"type": "Point", "coordinates": [112.731589829, 37.718860308]}, "properties": {"id": 10470, "name": "麦当劳晋中万达广场餐厅", "chain_slug": "mcdonalds", "category_slug": "supermarket", "address": "龙湖大道与新建北路十字路口东北角", "city": "晋中市"}}, {"type": "Feature", "id": 10471, "geometry": {"type": "Point", "coordinates": [112.545121499, 37.86407889]}, "properties": {"id": 10471, "name": "麦当劳太原水西关街餐厅", "chain_slug": "mcdonalds", "category_slug": "supermarket", "address": "太原市迎泽区水西关街92号建筑物一层东北角商铺", "city": "太原市"}}, {"type": "Feature", "id": 10472, "geometry": {"type": "Point", "coordinates": [112.558692166, 37.863834064]}, "properties": {"id": 10472, "name": "麦当劳太原时代广场二餐厅", "chain_slug": "mcdonalds", "category_slug": "supermarket", "address": "开花寺街东米市小区53号建筑物西侧首层及地下一层部分物业", "city": "太原市"}}, {"type": "Feature", "id": 10473, "geometry": {"type": "Point", "coordinates": [112.56197286, 37.868523369]}, "properties": {"id": 10473, "name": "麦当劳太原铜锣湾餐厅", "chain_slug": "mcdonalds", "category_slug": "supermarket", "address": "柳巷北路68号铜锣湾小区3幢一层A18号及二层C29-33号铺", "city": "太原市"}}, {"type": "Feature", "id": 10474, "geometry": {"type": "Point", "coordinates": [112.553956335, 37.883278247]}, "properties": {"id": 10474, "name": "麦当劳太原解放路餐厅", "chain_slug": "mcdonalds", "category_slug": "supermarket", "address": "解放路75号，万达百货2层2032商铺麦当劳餐厅", "city": "太原市"}}, {"type": "Feature", "id": 10475, "geometry": {"type": "Point", "coordinates": [112.545315501, 37.850776028]}, "properties": {"id": 10475, "name": "麦当劳太原新建南路餐厅", "chain_slug": "mcdonalds", "category_slug": "supermarket", "address": "新建南路59号KD.时光里商场一层2号商铺麦当劳", "city": "太原市"}}, {"type": "Feature", "id": 10476, "geometry": {"type": "Point", "coordinates": [112.535405409, 37.889138592]}, "properties": {"id": 10476, "name": "麦当劳太原滨河路餐厅", "chain_slug": "mcdonalds", "category_slug": "supermarket", "address": "胜利桥东环形路1号", "city": "太原市"}}, {"type": "Feature", "id": 10477, "geometry": {"type": "Point", "coordinates": [112.568631747, 37.859135444]}, "properties": {"id": 10477, "name": "麦当劳太原五一广场餐厅", "chain_slug": "mcdonalds", "category_slug": "supermarket", "address": "三晋大厦A区西北角首层及二层部分面积", "city": "太原市"}}, {"type": "Feature", "id": 10478, "geometry": {"type": "Point", "coordinates": [112.512377088, 37.870490291]}, "properties": {"id": 10478, "name": "麦当劳太原吾悦广场餐厅", "chain_slug": "mcdonalds", "category_slug": "supermarket", "address": "漪汾街36号太原新城吾悦广场三层3005、3006号商铺", "city": "太原市"}}, {"type": "Feature", "id": 10479, "geometry": {"type": "Point", "coordinates": [112.579481557, 37.860257967]}, "properties": {"id": 10479, "name": "麦当劳太原火车站餐厅", "chain_slug": "mcdonalds", "category_slug": "supermarket", "address": "太原站进站口北侧2号商铺", "city": "太原市"}}, {"type": "Feature", "id": 10480, "geometry": {"type": "Point", "coordinates": [112.504825802, 37.864549415]}, "properties": {"id": 10480, "name": "麦当劳太原诚泰大厦餐厅", "chain_slug": "mcdonalds", "category_slug": "supermarket", "address": "和平北路与瓦窖街东北角", "city": "太原市"}}, {"type": "Feature", "id": 10481, "geometry": {"type": "Point", "coordinates": [112.503057339, 37.856247795]}, "properties": {"id": 10481, "name": "麦当劳太原公元时代城古槐巷餐厅", "chain_slug": "mcdonalds", "category_slug": "supermarket", "address": "公元时代负一层", "city": "太原市"}}, {"type": "Feature", "id": 10482, "geometry": {"type": "Point", "coordinates": [112.513441336, 37.84036526]}, "properties": {"id": 10482, "name": "麦当劳太原南内环西街餐厅", "chain_slug": "mcdonalds", "category_slug": "supermarket", "address": "南内环西街53号来福花园", "city": "太原市"}}, {"type": "Feature", "id": 10483, "geometry": {"type": "Point", "coordinates": [112.483120544, 37.874820751]}, "properties": {"id": 10483, "name": "麦当劳太原西中环万科得来速餐厅", "chain_slug": "mcdonalds", "category_slug": "supermarket", "address": "西中环路万科金域华府南区5号商业楼北侧（西线南街西中环路口）", "city": "太原市"}}, {"type": "Feature", "id": 10484, "geometry": {"type": "Point", "coordinates": [112.470207166, 37.859983163]}, "properties": {"id": 10484, "name": "麦当劳太原西矿街得来速餐厅", "chain_slug": "mcdonalds", "category_slug": "supermarket", "address": "西矿街196号", "city": "太原市"}}, {"type": "Feature", "id": 10485, "geometry": {"type": "Point", "coordinates": [112.498408947, 37.901356159]}, "properties": {"id": 10485, "name": "麦当劳太原天美杉杉奥莱餐厅", "chain_slug": "mcdonalds", "category_slug": "supermarket", "address": "和平北路北中环交叉口西北角", "city": "太原市"}}, {"type": "Feature", "id": 10486, "geometry": {"type": "Point", "coordinates": [112.524310585, 37.833094736]}, "properties": {"id": 10486, "name": "麦当劳太原新晋祠路雅阁瑞普得来速餐厅", "chain_slug": "mcdonalds", "category_slug": "supermarket", "address": "新晋祠路甲40号", "city": "太原市"}}, {"type": "Feature", "id": 10487, "geometry": {"type": "Point", "coordinates": [112.510116695, 37.822856117]}, "properties": {"id": 10487, "name": "麦当劳太原千峰路得来速餐厅", "chain_slug": "mcdonalds", "category_slug": "supermarket", "address": "千峰路上庄凤玺湾5号楼一层底商", "city": "太原市"}}, {"type": "Feature", "id": 10488, "geometry": {"type": "Point", "coordinates": [112.497218055, 37.820691892]}, "properties": {"id": 10488, "name": "麦当劳太原长风西街餐厅", "chain_slug": "mcdonalds", "category_slug": "supermarket", "address": "长风西街62号", "city": "太原市"}}, {"type": "Feature", "id": 10489, "geometry": {"type": "Point", "coordinates": [112.521382115, 37.807182268]}, "properties": {"id": 10489, "name": "麦当劳太原万象城餐厅", "chain_slug": "mcdonalds", "category_slug": "supermarket", "address": "长兴路5号", "city": "太原市"}}, {"type": "Feature", "id": 10490, "geometry": {"type": "Point", "coordinates": [112.523764747, 37.808107703]}, "properties": {"id": 10490, "name": "麦当劳太原华润大厦餐厅", "chain_slug": "mcdonalds", "category_slug": "supermarket", "address": "华润T7写字楼底商1013#1014#商铺", "city": "太原市"}}, {"type": "Feature", "id": 10491, "geometry": {"type": "Point", "coordinates": [112.546569947, 37.837672361]}, "properties": {"id": 10491, "name": "麦当劳太原平阳路餐厅", "chain_slug": "mcdonalds", "category_slug": "supermarket", "address": "小店平阳路14号", "city": "太原市"}}, {"type": "Feature", "id": 10492, "geometry": {"type": "Point", "coordinates": [112.551213397, 37.81797592]}, "properties": {"id": 10492, "name": "麦当劳太原长风街百盛餐厅", "chain_slug": "mcdonalds", "category_slug": "supermarket", "address": "长风街125号", "city": "太原市"}}, {"type": "Feature", "id": 10493, "geometry": {"type": "Point", "coordinates": [112.564635, 37.839783891]}, "properties": {"id": 10493, "name": "麦当劳太原南内环街餐厅", "chain_slug": "mcdonalds", "category_slug": "supermarket", "address": "南内环街与并州路西北角", "city": "太原市"}}, {"type": "Feature", "id": 10494, "geometry": {"type": "Point", "coordinates": [112.556480827, 37.816126278]}, "properties": {"id": 10494, "name": "麦当劳太原北美新天地餐厅", "chain_slug": "mcdonalds", "category_slug": "supermarket", "address": "长风街与长治路交叉口东南角北美新天地购物中心4F", "city": "太原市"}}, {"type": "Feature", "id": 10495, "geometry": {"type": "Point", "coordinates": [112.572870264, 37.84858057]}, "properties": {"id": 10495, "name": "麦当劳太原东岗路星悦茂餐厅", "chain_slug": "mcdonalds", "category_slug": "supermarket", "address": "东岗路8号4幢麦当劳", "city": "太原市"}}, {"type": "Feature", "id": 10496, "geometry": {"type": "Point", "coordinates": [112.580660281, 37.824232835]}, "properties": {"id": 10496, "name": "麦当劳太原建设路双喜城餐厅", "chain_slug": "mcdonalds", "category_slug": "supermarket", "address": "亲贤北街9号103幢", "city": "太原市"}}, {"type": "Feature", "id": 10497, "geometry": {"type": "Point", "coordinates": [112.577283866, 37.812002246]}, "properties": {"id": 10497, "name": "麦当劳太原坞城路餐厅", "chain_slug": "mcdonalds", "category_slug": "supermarket", "address": "坞城路17号", "city": "太原市"}}, {"type": "Feature", "id": 10498, "geometry": {"type": "Point", "coordinates": [112.590136363, 37.8548441]}, "properties": {"id": 10498, "name": "麦当劳太原朝阳街餐厅", "chain_slug": "mcdonalds", "category_slug": "supermarket", "address": "朝阳街42号服装批发东城麦当劳", "city": "太原市"}}, {"type": "Feature", "id": 10499, "geometry": {"type": "Point", "coordinates": [112.597376017, 37.864792997]}, "properties": {"id": 10499, "name": "麦当劳太原万科紫院餐厅", "chain_slug": "mcdonalds", "category_slug": "supermarket", "address": "五龙口街万科紫院S-2#楼一层1004号商铺", "city": "太原市"}}, {"type": "Feature", "id": 10500, "geometry": {"type": "Point", "coordinates": [112.598094969, 37.801402151]}, "properties": {"id": 10500, "name": "麦当劳太原许东路餐厅", "chain_slug": "mcdonalds", "category_slug": "supermarket", "address": "许坦东街15号华夏晋韵抱鼓巷6号楼西侧临街商业楼", "city": "太原市"}}, {"type": "Feature", "id": 10501, "geometry": {"type": "Point", "coordinates": [112.604936152, 37.791504914]}, "properties": {"id": 10501, "name": "麦当劳太原南站出发层餐厅", "chain_slug": "mcdonalds", "category_slug": "supermarket", "address": "太原南站出发层北侧商铺", "city": "太原市"}}, {"type": "Feature", "id": 10502, "geometry": {"type": "Point", "coordinates": [112.586110075, 37.796200924]}, "properties": {"id": 10502, "name": "麦当劳太原山西大学餐厅", "chain_slug": "mcdonalds", "category_slug": "supermarket", "address": "山西大学坞城校区令德食堂旁", "city": "太原市"}}, {"type": "Feature", "id": 10503, "geometry": {"type": "Point", "coordinates": [112.602506421, 37.789561965]}, "properties": {"id": 10503, "name": "麦当劳太原南站站外餐厅(到达层西广场西出站口)", "chain_slug": "mcdonalds", "category_slug": "supermarket", "address": "高铁南站B1换乘大厅内规划旅客配套服务东南侧5-8号铺位", "city": "太原市"}}, {"type": "Feature", "id": 10504, "geometry": {"type": "Point", "coordinates": [112.597171127, 37.786841608]}, "properties": {"id": 10504, "name": "麦当劳太原印象城餐厅", "chain_slug": "mcdonalds", "category_slug": "supermarket", "address": "太榆路99号印象城二层", "city": "太原市"}}, {"type": "Feature", "id": 10505, "geometry": {"type": "Point", "coordinates": [112.578079484, 37.79354932]}, "properties": {"id": 10505, "name": "麦当劳太原中环商贸城餐厅", "chain_slug": "mcdonalds", "category_slug": "supermarket", "address": "南中环与坞城路西北角中环商贸城麦当劳", "city": "太原市"}}, {"type": "Feature", "id": 10506, "geometry": {"type": "Point", "coordinates": [112.566281053, 37.788737684]}, "properties": {"id": 10506, "name": "麦当劳太原北美N1新奥莱餐厅", "chain_slug": "mcdonalds", "category_slug": "supermarket", "address": "晋阳街与体育南路交汇处东北角", "city": "太原市"}}, {"type": "Feature", "id": 10507, "geometry": {"type": "Point", "coordinates": [112.521291976, 37.788671676]}, "properties": {"id": 10507, "name": "麦当劳太原新晋祠路得来速餐厅", "chain_slug": "mcdonalds", "category_slug": "supermarket", "address": "新晋祠路288号", "city": "太原市"}}, {"type": "Feature", "id": 10508, "geometry": {"type": "Point", "coordinates": [112.535027951, 37.772054224]}, "properties": {"id": 10508, "name": "麦当劳太原龙城万达广场餐厅", "chain_slug": "mcdonalds", "category_slug": "supermarket", "address": "龙城大街130号三层3018、3019号商铺", "city": "太原市"}}, {"type": "Feature", "id": 10509, "geometry": {"type": "Point", "coordinates": [112.55231142, 37.776646596]}, "properties": {"id": 10509, "name": "麦当劳太原怡康路餐厅", "chain_slug": "mcdonalds", "category_slug": "supermarket", "address": "龙城北街与怡康路东北角", "city": "太原市"}}, {"type": "Feature", "id": 10510, "geometry": {"type": "Point", "coordinates": [112.652494071, 37.77863687]}, "properties": {"id": 10510, "name": "麦当劳太原保利和光尘樾得来速餐厅", "chain_slug": "mcdonalds", "category_slug": "supermarket", "address": "龙城大街东延和光尘樾3号楼1层", "city": "太原市"}}, {"type": "Feature", "id": 10511, "geometry": {"type": "Point", "coordinates": [112.512282995, 37.748732683]}, "properties": {"id": 10511, "name": "麦当劳太原贾家庄街得来速餐厅", "chain_slug": "mcdonalds", "category_slug": "supermarket", "address": "新晋祠路与贾家庄街东南角", "city": "太原市"}}, {"type": "Feature", "id": 10512, "geometry": {"type": "Point", "coordinates": [112.576152065, 37.734222345]}, "properties": {"id": 10512, "name": "麦当劳太原昌盛万达广场餐厅", "chain_slug": "mcdonalds", "category_slug": "supermarket", "address": "昌盛街2号1幢", "city": "太原市"}}, {"type": "Feature", "id": 10513, "geometry": {"type": "Point", "coordinates": [112.578268437, 37.734107665]}, "properties": {"id": 10513, "name": "麦当劳太原龙盛街餐厅", "chain_slug": "mcdonalds", "category_slug": "supermarket", "address": "正大华景天地一层", "city": "太原市"}}, {"type": "Feature", "id": 10514, "geometry": {"type": "Point", "coordinates": [112.561800377, 37.723122371]}, "properties": {"id": 10514, "name": "麦当劳太原阳光揽胜得来速餐厅", "chain_slug": "mcdonalds", "category_slug": "supermarket", "address": "人民南路39号", "city": "太原市"}}, {"type": "Feature", "id": 10515, "geometry": {"type": "Point", "coordinates": [112.583868334, 37.894058897]}, "properties": {"id": 10515, "name": "麦当劳太原胜利街得来速餐厅", "chain_slug": "mcdonalds", "category_slug": "supermarket", "address": "敦化北路18号", "city": "太原市"}}, {"type": "Feature", "id": 10516, "geometry": {"type": "Point", "coordinates": [112.558232599, 37.913761643]}, "properties": {"id": 10516, "name": "麦当劳太原涧河路餐厅", "chain_slug": "mcdonalds", "category_slug": "supermarket", "address": "涧河路98号", "city": "太原市"}}, {"type": "Feature", "id": 10517, "geometry": {"type": "Point", "coordinates": [112.498965959, 37.92713989]}, "properties": {"id": 10517, "name": "麦当劳太原和平北路芮城国际餐厅", "chain_slug": "mcdonalds", "category_slug": "supermarket", "address": "和平北路429号", "city": "太原市"}}, {"type": "Feature", "id": 10518, "geometry": {"type": "Point", "coordinates": [112.527012906, 37.929057012]}, "properties": {"id": 10518, "name": "麦当劳太原大同路得来速餐厅", "chain_slug": "mcdonalds", "category_slug": "supermarket", "address": "大同路259号赵庄新城花园商业F1001-F1006号商铺", "city": "太原市"}}, {"type": "Feature", "id": 10519, "geometry": {"type": "Point", "coordinates": [112.540326951, 37.964084533]}, "properties": {"id": 10519, "name": "麦当劳太原新兰路得来速餐厅", "chain_slug": "mcdonalds", "category_slug": "supermarket", "address": "新兰路58号青秀佳苑1号商业1001-1005号商铺一层", "city": "太原市"}}, {"type": "Feature", "id": 10520, "geometry": {"type": "Point", "coordinates": [111.510941791, 36.085452726]}, "properties": {"id": 10520, "name": "麦当劳临汾解放路百悦餐厅", "chain_slug": "mcdonalds", "category_slug": "supermarket", "address": "解放路世纪百悦购物中心", "city": "临汾市"}}, {"type": "Feature", "id": 10521, "geometry": {"type": "Point", "coordinates": [111.505557713, 36.103098195]}, "properties": {"id": 10521, "name": "麦当劳临汾五洲国际广场餐厅", "chain_slug": "mcdonalds", "category_slug": "supermarket", "address": "经济技术开发区河汾路8号五洲国际广场", "city": "临汾市"}}, {"type": "Feature", "id": 10522, "geometry": {"type": "Point", "coordinates": [112.735025569, 38.411415907]}, "properties": {"id": 10522, "name": "麦当劳忻州大欣城餐厅", "chain_slug": "mcdonalds", "category_slug": "supermarket", "address": "新建南路32号", "city": "忻州市"}}, {"type": "Feature", "id": 10523, "geometry": {"type": "Point", "coordinates": [112.71835613, 38.442388154]}, "properties": {"id": 10523, "name": "麦当劳忻州雁门西大道餐厅", "chain_slug": "mcdonalds", "category_slug": "supermarket", "address": "雁门西大道与公园西街南巷交叉口西北角杏林花园2幢地上101号、202号商铺", "city": "忻州市"}}, {"type": "Feature", "id": 10524, "geometry": {"type": "Point", "coordinates": [112.393313865, 39.318175145]}, "properties": {"id": 10524, "name": "麦当劳朔州万达广场餐厅", "chain_slug": "mcdonalds", "category_slug": "supermarket", "address": "怡西路与鄯阳西街交汇处东南角", "city": "朔州市"}}, {"type": "Feature", "id": 10525, "geometry": {"type": "Point", "coordinates": [112.445958097, 39.370856546]}, "properties": {"id": 10525, "name": "麦当劳朔州世纪星城得来速餐厅", "chain_slug": "mcdonalds", "category_slug": "supermarket", "address": "梁郡路与长宁东街交叉口东南角行运街商业街项目西北角商铺", "city": "朔州市"}}, {"type": "Feature", "id": 10526, "geometry": {"type": "Point", "coordinates": [113.108750826, 36.185268089]}, "properties": {"id": 10526, "name": "麦当劳长治长兴中路餐厅", "chain_slug": "mcdonalds", "category_slug": "supermarket", "address": "长兴中路619号君悦新天地一层", "city": "长治市"}}, {"type": "Feature", "id": 10527, "geometry": {"type": "Point", "coordinates": [113.103599695, 36.182099756]}, "properties": {"id": 10527, "name": "麦当劳长治英雄南路餐厅", "chain_slug": "mcdonalds", "category_slug": "supermarket", "address": "西大街2号1号楼", "city": "长治市"}}, {"type": "Feature", "id": 10528, "geometry": {"type": "Point", "coordinates": [113.121903905, 36.218825031]}, "properties": {"id": 10528, "name": "麦当劳长治万达广场餐厅", "chain_slug": "mcdonalds", "category_slug": "supermarket", "address": "英雄北路222号", "city": "长治市"}}, {"type": "Feature", "id": 10529, "geometry": {"type": "Point", "coordinates": [113.07868855, 36.223783033]}, "properties": {"id": 10529, "name": "麦当劳长治体育路圣鑫园得来速餐厅", "chain_slug": "mcdonalds", "category_slug": "supermarket", "address": "捉马西大街和体育路交叉口东南角", "city": "长治市"}}, {"type": "Feature", "id": 10530, "geometry": {"type": "Point", "coordinates": [112.853904916, 35.485231935]}, "properties": {"id": 10530, "name": "麦当劳晋城文昌东街餐厅", "chain_slug": "mcdonalds", "category_slug": "supermarket", "address": "文昌东街439号金辇时代广场一层", "city": "晋城市"}}, {"type": "Feature", "id": 10531, "geometry": {"type": "Point", "coordinates": [112.834169473, 35.499688527]}, "properties": {"id": 10531, "name": "麦当劳晋城新市西街餐厅", "chain_slug": "mcdonalds", "category_slug": "supermarket", "address": "黄华街北街、新市西街(1366号)南侧", "city": "晋城市"}}, {"type": "Feature", "id": 10532, "geometry": {"type": "Point", "coordinates": [112.836871658, 35.51746307]}, "properties": {"id": 10532, "name": "麦当劳晋城古书院街餐厅", "chain_slug": "mcdonalds", "category_slug": "supermarket", "address": "古书院街与古阎路西南角建筑一层XJC100商铺", "city": "晋城市"}}, {"type": "Feature", "id": 10533, "geometry": {"type": "Point", "coordinates": [112.875216741, 35.473257822]}, "properties": {"id": 10533, "name": "麦当劳晋城万达广场餐厅", "chain_slug": "mcdonalds", "category_slug": "supermarket", "address": "文峰路与白水东街东南角", "city": "晋城市"}}, {"type": "Feature", "id": 10534, "geometry": {"type": "Point", "coordinates": [110.997505035, 35.025062668]}, "properties": {"id": 10534, "name": "麦当劳运城东路餐厅", "chain_slug": "mcdonalds", "category_slug": "supermarket", "address": "河东东街恒隆购物中心", "city": "运城市"}}, {"type": "Feature", "id": 10535, "geometry": {"type": "Point", "coordinates": [110.983535906, 35.03656037]}, "properties": {"id": 10535, "name": "麦当劳运城解放路餐厅", "chain_slug": "mcdonalds", "category_slug": "supermarket", "address": "解放路68号", "city": "运城市"}}, {"type": "Feature", "id": 10536, "geometry": {"type": "Point", "coordinates": [111.02364836, 35.044778347]}, "properties": {"id": 10536, "name": "麦当劳运城万达广场餐厅", "chain_slug": "mcdonalds", "category_slug": "supermarket", "address": "万达广场一层1015商铺", "city": "运城市"}}, {"type": "Feature", "id": 10537, "geometry": {"type": "Point", "coordinates": [111.132353475, 37.548481034]}, "properties": {"id": 10537, "name": "麦当劳吕梁离石区中泛时光里餐厅", "chain_slug": "mcdonalds", "category_slug": "supermarket", "address": "北川河东路与文丰路交叉口东南角中泛时光里购物中心", "city": "吕梁市"}}, {"type": "Feature", "id": 10538, "geometry": {"type": "Point", "coordinates": [113.33563464, 40.062931345]}, "properties": {"id": 10538, "name": "麦当劳大同万达广场餐厅", "chain_slug": "mcdonalds", "category_slug": "supermarket", "address": "御东新区永和路与南环东路十字路口东北角万达广场一楼", "city": "大同市"}}, {"type": "Feature", "id": 10539, "geometry": {"type": "Point", "coordinates": [113.577712781, 37.864592891]}, "properties": {"id": 10539, "name": "麦当劳阳泉桃北餐厅", "chain_slug": "mcdonalds", "category_slug": "supermarket", "address": "桃北东路滨河世纪城二期金期金联财富中心", "city": "阳泉市"}}, {"type": "Feature", "id": 10540, "geometry": {"type": "Point", "coordinates": [113.583440567, 37.882743781]}, "properties": {"id": 10540, "name": "麦当劳阳泉万达餐厅", "chain_slug": "mcdonalds", "category_slug": "supermarket", "address": "平阳东街李家庄乡冯家庄新村万达广场1050B，1051号商铺", "city": "阳泉市"}}, {"type": "Feature", "id": 10541, "geometry": {"type": "Point", "coordinates": [117.186794893, 39.128963369]}, "properties": {"id": 10541, "name": "麦当劳天津百货大楼餐厅", "chain_slug": "mcdonalds", "category_slug": "supermarket", "address": "和平路172号增1号", "city": "天津市"}}, {"type": "Feature", "id": 10542, "geometry": {"type": "Point", "coordinates": [117.181287191, 39.130194037]}, "properties": {"id": 10542, "name": "麦当劳天津大都会餐厅", "chain_slug": "mcdonalds", "category_slug": "supermarket", "address": "南市大街与福安大街交口天汇广场", "city": "天津市"}}, {"type": "Feature", "id": 10543, "geometry": {"type": "Point", "coordinates": [117.191176036, 39.121349272]}, "properties": {"id": 10543, "name": "麦当劳天津滨江二店餐厅", "chain_slug": "mcdonalds", "category_slug": "supermarket", "address": "滨江道270号", "city": "天津市"}}, {"type": "Feature", "id": 10544, "geometry": {"type": "Point", "coordinates": [117.180395127, 39.118113772]}, "properties": {"id": 10544, "name": "麦当劳天津鞍山道餐厅", "chain_slug": "mcdonalds", "category_slug": "supermarket", "address": "鞍山道111号", "city": "天津市"}}, {"type": "Feature", "id": 10545, "geometry": {"type": "Point", "coordinates": [117.187979259, 39.118010016]}, "properties": {"id": 10545, "name": "麦当劳天津国际商场餐厅", "chain_slug": "mcdonalds", "category_slug": "supermarket", "address": "南京路211号", "city": "天津市"}}, {"type": "Feature", "id": 10546, "geometry": {"type": "Point", "coordinates": [117.189693079, 39.117967897]}, "properties": {"id": 10546, "name": "麦当劳天津吉利大厦餐厅", "chain_slug": "mcdonalds", "category_slug": "supermarket", "address": "南京路吉利大厦", "city": "天津市"}}, {"type": "Feature", "id": 10547, "geometry": {"type": "Point", "coordinates": [117.178274578, 39.131734701]}, "properties": {"id": 10547, "name": "麦当劳天津食品街餐厅", "chain_slug": "mcdonalds", "category_slug": "supermarket", "address": "南市食品街2区一层第19号", "city": "天津市"}}, {"type": "Feature", "id": 10548, "geometry": {"type": "Point", "coordinates": [117.19566427, 39.126572195]}, "properties": {"id": 10548, "name": "麦当劳天津滨江四餐厅", "chain_slug": "mcdonalds", "category_slug": "supermarket", "address": "滨江道127号", "city": "天津市"}}, {"type": "Feature", "id": 10549, "geometry": {"type": "Point", "coordinates": [117.195773904, 39.122834629]}, "properties": {"id": 10549, "name": "麦当劳天津赤峰道IS餐厅", "chain_slug": "mcdonalds", "category_slug": "supermarket", "address": "新华路116 号的一部分，具体为102、103、111、112、201、204商铺", "city": "天津市"}}, {"type": "Feature", "id": 10550, "geometry": {"type": "Point", "coordinates": [117.191193616, 39.116977957]}, "properties": {"id": 10550, "name": "麦当劳天津和平大悦城餐厅", "chain_slug": "mcdonalds", "category_slug": "supermarket", "address": "南京路189号和平大悦城B1层近地铁B3口", "city": "天津市"}}, {"type": "Feature", "id": 10551, "geometry": {"type": "Point", "coordinates": [103.048379298, 30.016686302]}, "properties": {"id": 10551, "name": "麦当劳雅安青年路餐厅", "chain_slug": "mcdonalds", "category_slug": "supermarket", "address": "和平中路2号1幢1楼22-29号", "city": "雅安市"}}, {"type": "Feature", "id": 10552, "geometry": {"type": "Point", "coordinates": [102.998218094, 29.988561997]}, "properties": {"id": 10552, "name": "麦当劳雅安中大街餐厅", "chain_slug": "mcdonalds", "category_slug": "supermarket", "address": "中大街27号“温州商城”A区1楼4号、27号附5号、27号1幢2层1-5号", "city": "雅安市"}}, {"type": "Feature", "id": 10553, "geometry": {"type": "Point", "coordinates": [101.726133861, 26.568375389]}, "properties": {"id": 10553, "name": "麦当劳攀枝花万达广场餐厅", "chain_slug": "mcdonalds", "category_slug": "supermarket", "address": "机场路123号", "city": "攀枝花市"}}, {"type": "Feature", "id": 10554, "geometry": {"type": "Point", "coordinates": [101.731717905, 26.518938663]}, "properties": {"id": 10554, "name": "麦当劳攀枝花银泰城餐厅", "chain_slug": "mcdonalds", "category_slug": "supermarket", "address": "攀枝花大道916号", "city": "攀枝花市"}}, {"type": "Feature", "id": 10555, "geometry": {"type": "Point", "coordinates": [102.251316349, 27.882249171]}, "properties": {"id": 10555, "name": "麦当劳西昌航天大道(时代广场)餐厅", "chain_slug": "mcdonalds", "category_slug": "supermarket", "address": "西昌市航天大道", "city": "凉山彝族自治州"}}, {"type": "Feature", "id": 10556, "geometry": {"type": "Point", "coordinates": [104.646301688, 28.753510307]}, "properties": {"id": 10556, "name": "麦当劳宜宾航天路餐厅", "chain_slug": "mcdonalds", "category_slug": "supermarket", "address": "翠屏区南岸航天路南段7号宜宾万达广场一层1A023号", "city": "宜宾市"}}, {"type": "Feature", "id": 10557, "geometry": {"type": "Point", "coordinates": [104.627550847, 28.750550267]}, "properties": {"id": 10557, "name": "麦当劳宜宾东方时代广场餐厅", "chain_slug": "mcdonalds", "category_slug": "supermarket", "address": "南岸金沙江南路3号东方时代广场一楼", "city": "宜宾市"}}, {"type": "Feature", "id": 10558, "geometry": {"type": "Point", "coordinates": [104.62782201, 28.731965951]}, "properties": {"id": 10558, "name": "麦当劳宜宾凤凰大道(万象宜宾天地)餐厅", "chain_slug": "mcdonalds", "category_slug": "supermarket", "address": "栀香路6号", "city": "宜宾市"}}, {"type": "Feature", "id": 10559, "geometry": {"type": "Point", "coordinates": [104.604885743, 28.727143482]}, "properties": {"id": 10559, "name": "麦当劳宜宾西站餐厅", "chain_slug": "mcdonalds", "category_slug": "supermarket", "address": "宜宾西站站前广场换乘大厅", "city": "宜宾市"}}, {"type": "Feature", "id": 10560, "geometry": {"type": "Point", "coordinates": [105.432417924, 28.878245004]}, "properties": {"id": 10560, "name": "麦当劳泸州天益广场餐厅", "chain_slug": "mcdonalds", "category_slug": "supermarket", "address": "江阳江西路２５号", "city": "泸州市"}}, {"type": "Feature", "id": 10561, "geometry": {"type": "Point", "coordinates": [105.447386479, 28.893415202]}, "properties": {"id": 10561, "name": "麦当劳泸州汇通餐厅", "chain_slug": "mcdonalds", "category_slug": "supermarket", "address": "水井沟汇通百货大楼首层及二层", "city": "泸州市"}}, {"type": "Feature", "id": 10562, "geometry": {"type": "Point", "coordinates": [105.430214522, 28.852686015]}, "properties": {"id": 10562, "name": "麦当劳泸州天远广场餐厅", "chain_slug": "mcdonalds", "category_slug": "supermarket", "address": "蓝安路一段277号1号楼一层1001-1005、1057-1061号", "city": "泸州市"}}, {"type": "Feature", "id": 10563, "geometry": {"type": "Point", "coordinates": [105.429965874, 28.897050112]}, "properties": {"id": 10563, "name": "麦当劳泸州步步高新天地餐厅", "chain_slug": "mcdonalds", "category_slug": "supermarket", "address": "龙潭区龙南路83号1幢3号步步高新天地一层 ，", "city": "泸州市"}}, {"type": "Feature", "id": 10564, "geometry": {"type": "Point", "coordinates": [105.406425246, 28.897395375]}, "properties": {"id": 10564, "name": "麦当劳泸州华升南路餐厅", "chain_slug": "mcdonalds", "category_slug": "supermarket", "address": "华升南路佳乐世纪城", "city": "泸州市"}}, {"type": "Feature", "id": 10565, "geometry": {"type": "Point", "coordinates": [105.480282447, 28.872791597]}, "properties": {"id": 10565, "name": "麦当劳泸州酒谷大道得来速餐厅", "chain_slug": "mcdonalds", "category_slug": "supermarket", "address": "酒谷大道三段1号2栋1层附107号商铺", "city": "泸州市"}}, {"type": "Feature", "id": 10566, "geometry": {"type": "Point", "coordinates": [105.416149356, 28.913141665]}, "properties": {"id": 10566, "name": "麦当劳泸州万达广场餐厅", "chain_slug": "mcdonalds", "category_slug": "supermarket", "address": "金带路与红星路交叉口泸州城北万达广场一层1027和1028A商铺", "city": "泸州市"}}, {"type": "Feature", "id": 10567, "geometry": {"type": "Point", "coordinates": [104.765565905, 29.322596992]}, "properties": {"id": 10567, "name": "麦当劳自贡南湖路餐厅", "chain_slug": "mcdonalds", "category_slug": "supermarket", "address": "南湖路666号华商国际城二期15栋1层01、02、03、31、32、33号", "city": "自贡市"}}, {"type": "Feature", "id": 10568, "geometry": {"type": "Point", "coordinates": [104.784464785, 29.318830989]}, "properties": {"id": 10568, "name": "麦当劳自贡南悦里餐厅", "chain_slug": "mcdonalds", "category_slug": "supermarket", "address": "高新区汇南路与紫荆街交汇处东区邻里中心一层", "city": "自贡市"}}, {"type": "Feature", "id": 10569, "geometry": {"type": "Point", "coordinates": [104.746667702, 29.332667589]}, "properties": {"id": 10569, "name": "麦当劳自贡汇川路(万达)餐厅", "chain_slug": "mcdonalds", "category_slug": "supermarket", "address": "汇川路1699号", "city": "自贡市"}}, {"type": "Feature", "id": 10570, "geometry": {"type": "Point", "coordinates": [103.764023245, 29.560835535]}, "properties": {"id": 10570, "name": "麦当劳乐山上土桥街重百商场餐厅", "chain_slug": "mcdonalds", "category_slug": "supermarket", "address": "鼓楼街58号8幢(乐山重百商场一楼)", "city": "乐山市"}}, {"type": "Feature", "id": 10571, "geometry": {"type": "Point", "coordinates": [103.762450688, 29.582280322]}, "properties": {"id": 10571, "name": "麦当劳乐山梅西百货餐厅", "chain_slug": "mcdonalds", "category_slug": "supermarket", "address": "嘉定中路580号嘉州国际商业中心", "city": "乐山市"}}, {"type": "Feature", "id": 10572, "geometry": {"type": "Point", "coordinates": [105.049184786, 29.580532162]}, "properties": {"id": 10572, "name": "麦当劳内江邱家嘴餐厅", "chain_slug": "mcdonalds", "category_slug": "supermarket", "address": "邱家嘴俊麟大厦", "city": "内江市"}}, {"type": "Feature", "id": 10573, "geometry": {"type": "Point", "coordinates": [103.837092016, 30.075579003]}, "properties": {"id": 10573, "name": "麦当劳眉山文忠街餐厅", "chain_slug": "mcdonalds", "category_slug": "supermarket", "address": "文忠街眉山万达广场", "city": "眉山市"}}, {"type": "Feature", "id": 10574, "geometry": {"type": "Point", "coordinates": [103.833309701, 30.050194845]}, "properties": {"id": 10574, "name": "麦当劳眉山雕像国际广场餐厅", "chain_slug": "mcdonalds", "category_slug": "supermarket", "address": "三苏雕像广场侧", "city": "眉山市"}}, {"type": "Feature", "id": 10575, "geometry": {"type": "Point", "coordinates": [104.623743271, 30.130281819]}, "properties": {"id": 10575, "name": "麦当劳资阳娇子大道餐厅", "chain_slug": "mcdonalds", "category_slug": "supermarket", "address": "娇子大道二段1号（资阳曼购中心）一层L1-10号", "city": "资阳市"}}, {"type": "Feature", "id": 10576, "geometry": {"type": "Point", "coordinates": [105.591833764, 30.533824393]}, "properties": {"id": 10576, "name": "麦当劳遂宁万达餐厅", "chain_slug": "mcdonalds", "category_slug": "supermarket", "address": "河东新区遂宁万达广场一层1010 -1011号商铺", "city": "遂宁市"}}, {"type": "Feature", "id": 10577, "geometry": {"type": "Point", "coordinates": [107.460275089, 31.228030745]}, "properties": {"id": 10577, "name": "麦当劳达州金龙大道餐厅", "chain_slug": "mcdonalds", "category_slug": "supermarket", "address": "朝阳街道皂角垭社区二组仁和春天国际广场、国际花园1号楼1层的125商铺", "city": "达州市"}}, {"type": "Feature", "id": 10578, "geometry": {"type": "Point", "coordinates": [107.496833303, 31.218070076]}, "properties": {"id": 10578, "name": "麦当劳达州朝阳东路滨江名都城餐厅", "chain_slug": "mcdonalds", "category_slug": "supermarket", "address": "和悦广场", "city": "达州市"}}, {"type": "Feature", "id": 10579, "geometry": {"type": "Point", "coordinates": [107.505591521, 31.186330302]}, "properties": {"id": 10579, "name": "麦当劳达州汉兴街餐厅", "chain_slug": "mcdonalds", "category_slug": "supermarket", "address": "翠屏街道汉兴街318号升华广场1层1号门", "city": "达州市"}}, {"type": "Feature", "id": 10580, "geometry": {"type": "Point", "coordinates": [106.66085546, 30.454375515]}, "properties": {"id": 10580, "name": "麦当劳广安凌云路得来速餐厅", "chain_slug": "mcdonalds", "category_slug": "supermarket", "address": "凌云东路215号", "city": "广安市"}}, {"type": "Feature", "id": 10581, "geometry": {"type": "Point", "coordinates": [104.061408179, 30.571192528]}, "properties": {"id": 10581, "name": "麦当劳成都新世纪环球中心餐厅", "chain_slug": "mcdonalds", "category_slug": "supermarket", "address": "高新区天府大道北段1700号环球中心B1层B01/03", "city": "成都市"}}, {"type": "Feature", "id": 10582, "geometry": {"type": "Point", "coordinates": [104.069923914, 30.57780174]}, "properties": {"id": 10582, "name": "麦当劳成都高新区大魔方餐厅", "chain_slug": "mcdonalds", "category_slug": "supermarket", "address": "高新区天府大道北段1777号11栋B1065号", "city": "成都市"}}, {"type": "Feature", "id": 10583, "geometry": {"type": "Point", "coordinates": [104.059969498, 30.583432354]}, "properties": {"id": 10583, "name": "麦当劳成都华商金融中心餐厅", "chain_slug": "mcdonalds", "category_slug": "supermarket", "address": "高新区交子大道33号", "city": "成都市"}}, {"type": "Feature", "id": 10584, "geometry": {"type": "Point", "coordinates": [104.055340332, 30.585284446]}, "properties": {"id": 10584, "name": "麦当劳成都高新区交子大道餐厅", "chain_slug": "mcdonalds", "category_slug": "supermarket", "address": "高新交子大道300号", "city": "成都市"}}, {"type": "Feature", "id": 10585, "geometry": {"type": "Point", "coordinates": [104.064293727, 30.592702461]}, "properties": {"id": 10585, "name": "麦当劳成都高新区天晖南街(茂业)餐厅", "chain_slug": "mcdonalds", "category_slug": "supermarket", "address": "高新区天府大道北段28号茂业中心", "city": "成都市"}}, {"type": "Feature", "id": 10586, "geometry": {"type": "Point", "coordinates": [104.060853903, 30.557442161]}, "properties": {"id": 10586, "name": "麦当劳成都保利时光里得来速餐厅", "chain_slug": "mcdonalds", "category_slug": "supermarket", "address": "高新区吉瑞二路99号", "city": "成都市"}}, {"type": "Feature", "id": 10587, "geometry": {"type": "Point", "coordinates": [104.06541433, 30.557302593]}, "properties": {"id": 10587, "name": "麦当劳成都天府大道中段餐厅", "chain_slug": "mcdonalds", "category_slug": "supermarket", "address": "高新区天府大道中段396号地下一层5号商铺", "city": "成都市"}}, {"type": "Feature", "id": 10588, "geometry": {"type": "Point", "coordinates": [104.049920002, 30.589236166]}, "properties": {"id": 10588, "name": "麦当劳成都高新仁和餐厅", "chain_slug": "mcdonalds", "category_slug": "supermarket", "address": "成都高新府城大道505号仁和百货负一层70号商铺", "city": "成都市"}}, {"type": "Feature", "id": 10589, "geometry": {"type": "Point", "coordinates": [104.068112072, 30.593636074]}, "properties": {"id": 10589, "name": "麦当劳成都高新区天顺路餐厅", "chain_slug": "mcdonalds", "category_slug": "supermarket", "address": "高新区天泰路145号1栋1层102-104号", "city": "成都市"}}, {"type": "Feature", "id": 10590, "geometry": {"type": "Point", "coordinates": [104.048484838, 30.562341699]}, "properties": {"id": 10590, "name": "麦当劳成都高新西盛华北路铁像寺水街餐厅", "chain_slug": "mcdonalds", "category_slug": "supermarket", "address": "盛华北路116号8栋附110", "city": "成都市"}}, {"type": "Feature", "id": 10591, "geometry": {"type": "Point", "coordinates": [104.055341597, 30.557411325]}, "properties": {"id": 10591, "name": "麦当劳成都益州大道乐家保利餐厅", "chain_slug": "mcdonalds", "category_slug": "supermarket", "address": "益州大道中段699号乐家保利广场1层1001、1002号", "city": "成都市"}}, {"type": "Feature", "id": 10592, "geometry": {"type": "Point", "coordinates": [104.052694944, 30.596219192]}, "properties": {"id": 10592, "name": "麦当劳成都高新西和硕东街新街里餐厅", "chain_slug": "mcdonalds", "category_slug": "supermarket", "address": "高新区荟锦路50号", "city": "成都市"}}, {"type": "Feature", "id": 10593, "geometry": {"type": "Point", "coordinates": [104.007162514, 30.570291312]}, "properties": {"id": 10593, "name": "麦当劳成都蓝光空港国际城得来速餐厅", "chain_slug": "mcdonalds", "category_slug": "supermarket", "address": "大件路白家段280号蓝光空港国际城", "city": "成都市"}}, {"type": "Feature", "id": 10594, "geometry": {"type": "Point", "coordinates": [104.0019673, 30.577595432]}, "properties": {"id": 10594, "name": "麦当劳成都双流区机场路得来速餐厅", "chain_slug": "mcdonalds", "category_slug": "supermarket", "address": "西航港街道机场路近都段27号", "city": "成都市"}}, {"type": "Feature", "id": 10595, "geometry": {"type": "Point", "coordinates": [104.035362289, 30.548841957]}, "properties": {"id": 10595, "name": "麦当劳成都高新区天府三街大源欢乐颂餐厅", "chain_slug": "mcdonalds", "category_slug": "supermarket", "address": "高新区天府三街1599号", "city": "成都市"}}, {"type": "Feature", "id": 10596, "geometry": {"type": "Point", "coordinates": [104.043346995, 30.550897524]}, "properties": {"id": 10596, "name": "麦当劳成都高新区世豪广场二期餐厅", "chain_slug": "mcdonalds", "category_slug": "supermarket", "address": "高新区剑南大道中段1198号世豪荟", "city": "成都市"}}, {"type": "Feature", "id": 10597, "geometry": {"type": "Point", "coordinates": [103.98397974, 30.569639722]}, "properties": {"id": 10597, "name": "麦当劳成都双流区和美菁蓉广场餐厅", "chain_slug": "mcdonalds", "category_slug": "supermarket", "address": "临港路一段1号", "city": "成都市"}}, {"type": "Feature", "id": 10598, "geometry": {"type": "Point", "coordinates": [103.982072088, 30.581334173]}, "properties": {"id": 10598, "name": "麦当劳成都双流区锦华路四段餐厅", "chain_slug": "mcdonalds", "category_slug": "supermarket", "address": "锦华路四段4号、6号", "city": "成都市"}},