{"type":"FeatureCollection","features":[{"type":"Feature","id":59270070,"geometry":{"type":"Point","coordinates":[113.306573,23.095311]},"properties":{"id":59270070,"name":"蜜雪冰城(羊城秀店)","chain_slug":"mixue","category_slug":"fast-food","address":"新港西路169号羊城秀商场内E006号铺","city":"广东省广州市海珠区","shop_id":"1638412756535361538","shop_code":"931428"}},{"type":"Feature","id":64174251,"geometry":{"type":"Point","coordinates":[113.262359,23.193526]},"properties":{"id":64174251,"name":"蜜雪冰城（百信广场店）","chain_slug":"mixue","category_slug":"fast-food","address":"机场路1309号负一至三层广州市白云区百信广场1层DL1W07铺","city":null,"shop_id":"1706959632641167361","shop_code":"935289"}},{"type":"Feature","id":89342195,"geometry":{"type":"Point","coordinates":[113.330412,23.095899]},"properties":{"id":89342195,"name":"蜜雪冰城（纵横广场店）","chain_slug":"mixue","category_slug":"fast-food","address":"新港中路456号101房自编A108-1房","city":"广东省广州市海珠区","shop_id":"1909915611081908225","shop_code":"949171"}},{"type":"Feature","id":96375461,"geometry":{"type":"Point","coordinates":[113.308151,23.101177]},"properties":{"id":96375461,"name":"蜜雪冰城（下渡路店）","chain_slug":"mixue","category_slug":"fast-food","address":"新港西下渡路56号之12铺","city":"广东省广州市海珠区","shop_id":"1424936770017292289","shop_code":"907974"}},{"type":"Feature","id":126020432,"geometry":{"type":"Point","coordinates":[113.195872,23.150007]},"properties":{"id":126020432,"name":"蜜雪冰城（金沙洲永旺梦乐城店）","chain_slug":"mixue","category_slug":"fast-food","address":"广州市白云区沙凤三路1号、1号之一之二1001房广州金沙商业中心自编T135铺","city":null,"shop_id":"1816725243851599873","shop_code":"61900388"}},{"type":"Feature","id":208413332,"geometry":{"type":"Point","coordinates":[113.25183,23.179932]},"properties":{"id":208413332,"name":"蜜雪冰城（棠影汇广场店）","chain_slug":"mixue","category_slug":"fast-food","address":"三元里大道1004号101铺","city":"广东省广州市白云区","shop_id":"1897602774422663169","shop_code":"947836"}},{"type":"Feature","id":212580215,"geometry":{"type":"Point","coordinates":[113.28924,23.09274]},"properties":{"id":212580215,"name":"蜜雪冰城（中大合悦店）","chain_slug":"mixue","category_slug":"fast-food","address":"新港西路68号商场101铺之1011b","city":"广东省广州市海珠区","shop_id":"1887802160436092929","shop_code":"946422"}},{"type":"Feature","id":228532315,"geometry":{"type":"Point","coordinates":[113.316149,23.066235]},"properties":{"id":228532315,"name":"蜜雪冰城（后窖店）","chain_slug":"mixue","category_slug":"fast-food","address":"后窖西大街88号A6","city":"广东省广州市海珠区","shop_id":"1424922796215365634","shop_code":"916049"}},{"type":"Feature","id":289046605,"geometry":{"type":"Point","coordinates":[113.255797,23.147111]},"properties":{"id":289046605,"name":"蜜雪冰城（超站流花地铁口店）","chain_slug":"mixue","category_slug":"fast-food","address":"环市西路188号1层101商铺","city":"广东省广州市越秀区","shop_id":"2001198727976624129","shop_code":"953909"}},{"type":"Feature","id":316176208,"geometry":{"type":"Point","coordinates":[113.231926,23.063515]},"properties":{"id":316176208,"name":"蜜雪冰城（西塱店）","chain_slug":"mixue","category_slug":"fast-food","address":"花地大道南路麦村北约5号A区B栋105档","city":"广东省广州市荔湾区","shop_id":"1516321989815771138","shop_code":"924799"}},{"type":"Feature","id":331948877,"geometry":{"type":"Point","coordinates":[113.296521,23.160033]},"properties":{"id":331948877,"name":"蜜雪冰城（白云旅发南门文创店）","chain_slug":"mixue","category_slug":"fast-food","address":"广园中路801号白云山风景名胜区南门游客中心","city":"广东省广州市越秀区","shop_id":"1802976380103823361","shop_code":"942638"}},{"type":"Feature","id":340755741,"geometry":{"type":"Point","coordinates":[113.287826,23.138862]},"properties":{"id":340755741,"name":"蜜雪冰城（淘金店）","chain_slug":"mixue","category_slug":"fast-food","address":"淘金路98-110号首层第B1-B2铺","city":"广东省广州市越秀区","shop_id":"1922932760603942914","shop_code":"950596"}},{"type":"Feature","id":349671999,"geometry":{"type":"Point","coordinates":[113.248293,23.147688]},"properties":{"id":349671999,"name":"蜜雪冰城（妇幼保健院）","chain_slug":"mixue","category_slug":"fast-food","address":"妇幼保健院南侧自编8档","city":null,"shop_id":"1794925483843039233","shop_code":"942049"}},{"type":"Feature","id":365130403,"geometry":{"type":"Point","coordinates":[113.323485,23.131063]},"properties":{"id":365130403,"name":"蜜雪冰城（天河南一路天河城广场24小时营业门店）","chain_slug":"mixue","category_slug":"fast-food","address":"天河南一路42号","city":"广东省广州市天河区","shop_id":"1879087474534416386","shop_code":"946236"}},{"type":"Feature","id":426813635,"geometry":{"type":"Point","coordinates":[113.233239,23.079235]},"properties":{"id":426813635,"name":"蜜雪冰城（荔胜广场店）","chain_slug":"mixue","category_slug":"fast-food","address":"花地大道中66号第三层自编3夹2铺","city":"广东省广州市荔湾区","shop_id":"1999000315680137218","shop_code":"953528"}},{"type":"Feature","id":447532392,"geometry":{"type":"Point","coordinates":[113.278016,23.143244]},"properties":{"id":447532392,"name":"蜜雪冰城（麓景路店）","chain_slug":"mixue","category_slug":"fast-food","address":"登峰街道麓景路103号101铺","city":"广东省广州市越秀区","shop_id":"2026143068620730370","shop_code":"955305"}},{"type":"Feature","id":458160163,"geometry":{"type":"Point","coordinates":[113.274356,23.207365]},"properties":{"id":458160163,"name":"蜜雪冰城（广州市白云区江夏店）","chain_slug":"mixue","category_slug":"fast-food","address":"黄石街江夏大塘大街80号107铺","city":"广东省广州市白云区","shop_id":"1550769031210680322","shop_code":"927098"}},{"type":"Feature","id":464967539,"geometry":{"type":"Point","coordinates":[113.334532,23.141882]},"properties":{"id":464967539,"name":"蜜雪冰城(JC金田广场店)","chain_slug":"mixue","category_slug":"fast-food","address":"天河北路561号101铺(自编A20B单元）","city":null,"shop_id":"1780915197947596801","shop_code":"940517"}},{"type":"Feature","id":546596907,"geometry":{"type":"Point","coordinates":[113.254347,23.125542]},"properties":{"id":546596907,"name":"蜜雪冰城(西门口地铁站店)","chain_slug":"mixue","category_slug":"fast-food","address":"人民北路651号","city":null,"shop_id":"1794186978988826626","shop_code":"942022"}},{"type":"Feature","id":550284373,"geometry":{"type":"Point","coordinates":[113.337054,23.087712]},"properties":{"id":550284373,"name":"蜜雪冰城(石榴岗店)","chain_slug":"mixue","category_slug":"fast-food","address":"红卫村石榴岗路18号之一101铺","city":"广东省广州市海珠区","shop_id":"1652208897529876482","shop_code":"932401"}},{"type":"Feature","id":596843508,"geometry":{"type":"Point","coordinates":[113.255576,23.093952]},"properties":{"id":596843508,"name":"蜜雪冰城（凤凰新村店）","chain_slug":"mixue","category_slug":"fast-food","address":"梅园西路18号101-4","city":"广东省广州市海珠区","shop_id":"2026176716883509250","shop_code":"955466"}},{"type":"Feature","id":600306053,"geometry":{"type":"Point","coordinates":[113.215974,23.126179]},"properties":{"id":600306053,"name":"蜜雪冰城（坦尾店）","chain_slug":"mixue","category_slug":"fast-food","address":"印月街3号126房","city":"广东省广州市荔湾区","shop_id":"2000811088593195009","shop_code":"953739"}},{"type":"Feature","id":625121422,"geometry":{"type":"Point","coordinates":[113.271931,23.122372]},"properties":{"id":625121422,"name":"蜜雪冰城（文德路店）","chain_slug":"mixue","category_slug":"fast-food","address":"文德路67号金德大厦A2","city":"广东省广州市越秀区","shop_id":"1424931738077863937","shop_code":"910719"}},{"type":"Feature","id":647293491,"geometry":{"type":"Point","coordinates":[113.326349,23.131872]},"properties":{"id":647293491,"name":"蜜雪冰城（正佳广场店）","chain_slug":"mixue","category_slug":"fast-food","address":"正佳广场负一层BG-007号商铺","city":"广东省广州市天河区","shop_id":"1913529251768963073","shop_code":"949602"}},{"type":"Feature","id":691693272,"geometry":{"type":"Point","coordinates":[113.188877,23.13217]},"properties":{"id":691693272,"name":"蜜雪冰城（海北广场店）","chain_slug":"mixue","category_slug":"fast-food","address":"大沥黄岐泌冲村海北广场一期岭南现代街自编号为A09-1号","city":null,"shop_id":"1669278360406245377","shop_code":"933228"}},{"type":"Feature","id":696324591,"geometry":{"type":"Point","coordinates":[113.254177,23.062705]},"properties":{"id":696324591,"name":"蜜雪冰城(环翠北路店)","chain_slug":"mixue","category_slug":"fast-food","address":"环翠北路38号A栋33铺之三","city":"广东省广州市荔湾区","shop_id":"1635830129936715778","shop_code":"931179"}},{"type":"Feature","id":711195224,"geometry":{"type":"Point","coordinates":[113.258257,23.204584]},"properties":{"id":711195224,"name":"蜜雪冰城（马务店）","chain_slug":"mixue","category_slug":"fast-food","address":"黄石西路577-C","city":"广东省广州市白云区","shop_id":"1655522529005182978","shop_code":"932523"}},{"type":"Feature","id":721084751,"geometry":{"type":"Point","coordinates":[113.327732,23.182398]},"properties":{"id":721084751,"name":"蜜雪冰城（京溪牌坊店）","chain_slug":"mixue","category_slug":"fast-food","address":"京溪中路30号03铺","city":null,"shop_id":"1791731777698754561","shop_code":"941839"}},{"type":"Feature","id":765084594,"geometry":{"type":"Point","coordinates":[113.241675,23.113325]},"properties":{"id":765084594,"name":"蜜雪冰城（恩宁路店）","chain_slug":"mixue","category_slug":"fast-food","address":"十甫路6号","city":null,"shop_id":"1690246879583043586","shop_code":"934145"}},{"type":"Feature","id":794775074,"geometry":{"type":"Point","coordinates":[113.281544,23.068988]},"properties":{"id":794775074,"name":"蜜雪冰城（石溪牌坊店）","chain_slug":"mixue","category_slug":"fast-food","address":"石溪冲边街1-8号自编1号铺及2号铺","city":"广东省广州市海珠区","shop_id":"1634107088949096450","shop_code":"931050"}},{"type":"Feature","id":823151616,"geometry":{"type":"Point","coordinates":[113.30277,23.068875]},"properties":{"id":823151616,"name":"蜜雪冰城(南洲嘿熊店)","chain_slug":"mixue","category_slug":"fast-food","address":"南洲北路燕安二街96号","city":"广东省广州市海珠区","shop_id":"1424919848975048706","shop_code":"918350"}},{"type":"Feature","id":827247731,"geometry":{"type":"Point","coordinates":[113.259725,23.191282]},"properties":{"id":827247731,"name":"蜜雪冰城（新市新街店）","chain_slug":"mixue","category_slug":"fast-food","address":"新市新街16号之111档","city":"广东省广州市白云区","shop_id":"1424921645689053185","shop_code":"916939"}},{"type":"Feature","id":839311126,"geometry":{"type":"Point","coordinates":[113.199796,23.142249]},"properties":{"id":839311126,"name":"蜜雪冰城（金铂天地店）","chain_slug":"mixue","category_slug":"fast-food","address":"大沥镇黄岐建设大道33号万宜广场07栋108铺","city":"广东省佛山市南海区","shop_id":"1444904836049195010","shop_code":"921938"}},{"type":"Feature","id":852324549,"geometry":{"type":"Point","coordinates":[113.2328,23.094067]},"properties":{"id":852324549,"name":"蜜雪冰城（芳村店）","chain_slug":"mixue","category_slug":"fast-food","address":"花地大道北1号1051、1064铺","city":"广东省广州市荔湾区","shop_id":"1775073223835308034","shop_code":"939668"}},{"type":"Feature","id":853635208,"geometry":{"type":"Point","coordinates":[113.329208,23.161522]},"properties":{"id":853635208,"name":"蜜雪冰城（燕岭路燕塘大厦店）","chain_slug":"mixue","category_slug":"fast-food","address":"兴华街道燕岭路113号13铺","city":null,"shop_id":"1773284233859715074","shop_code":"939461"}},{"type":"Feature","id":873883766,"geometry":{"type":"Point","coordinates":[113.332504,23.190535]},"properties":{"id":873883766,"name":"蜜雪冰城（蟾蜍石中街店）","chain_slug":"mixue","category_slug":"fast-food","address":"同和蟾蜍石中街9号102房","city":"广东省广州市白云区","shop_id":"1560516247059611650","shop_code":"928013"}},{"type":"Feature","id":886590797,"geometry":{"type":"Point","coordinates":[113.309496,23.15009]},"properties":{"id":886590797,"name":"蜜雪冰城（沙河服装城24小时店）","chain_slug":"mixue","category_slug":"fast-food","address":"沙河街道先烈东路256号首层自编05号铺","city":"广东省广州市天河区","shop_id":"1928741880707813377","shop_code":"951256"}},{"type":"Feature","id":959200850,"geometry":{"type":"Point","coordinates":[113.285665,23.085811]},"properties":{"id":959200850,"name":"蜜雪冰城（泰沙路店）","chain_slug":"mixue","category_slug":"fast-food","address":"凤阳街道泰沙路8号之一105铺自编之二","city":"广东省广州市海珠区","shop_id":"2012090827165327362","shop_code":"955076"}},{"type":"Feature","id":988556004,"geometry":{"type":"Point","coordinates":[113.292633,23.072145]},"properties":{"id":988556004,"name":"蜜雪冰城（东晓南城光荟广场店24小时营业）","chain_slug":"mixue","category_slug":"fast-food","address":"东晓南路1290号101-50铺","city":"广东省广州市海珠区","shop_id":"1568165533097639937","shop_code":"928593"}},{"type":"Feature","id":1017857757,"geometry":{"type":"Point","coordinates":[113.314717,23.120354]},"properties":{"id":1017857757,"name":"蜜雪冰城（五羊邨地铁c店）","chain_slug":"mixue","category_slug":"fast-food","address":"寺右新马路北三街一巷15号之一首层自编A铺101铺","city":"广东省广州市越秀区","shop_id":"1530843421135081473","shop_code":"925588"}},{"type":"Feature","id":1082283203,"geometry":{"type":"Point","coordinates":[113.305341,23.131657]},"properties":{"id":1082283203,"name":"蜜雪冰城（东风东路店）","chain_slug":"mixue","category_slug":"fast-food","address":"东风东路788号自编A7A8","city":"广东省广州市越秀区","shop_id":"2011262261309644802","shop_code":"955009"}},{"type":"Feature","id":1141469096,"geometry":{"type":"Point","coordinates":[113.295405,23.071134]},"properties":{"id":1141469096,"name":"蜜雪冰城东晓南地铁A口","chain_slug":"mixue","category_slug":"fast-food","address":"南洲北路12号101","city":"广东省广州市海珠区","shop_id":"1876226843720437761","shop_code":"945959"}},{"type":"Feature","id":1150101209,"geometry":{"type":"Point","coordinates":[113.318642,23.117959]},"properties":{"id":1150101209,"name":"蜜雪冰城（珠江新城店）","chain_slug":"mixue","category_slug":"fast-food","address":"华利路57号一层05铺","city":"广东省广州市天河区","shop_id":"1936988797128564738","shop_code":"951982"}},{"type":"Feature","id":1157867830,"geometry":{"type":"Point","coordinates":[113.324502,23.196557]},"properties":{"id":1157867830,"name":"蜜雪冰城(石握路店）","chain_slug":"mixue","category_slug":"fast-food","address":"同和街石握路4号","city":"广东省广州市白云区","shop_id":"1424930151611101185","shop_code":"912968"}},{"type":"Feature","id":1233713552,"geometry":{"type":"Point","coordinates":[113.316963,23.089346]},"properties":{"id":1233713552,"name":"蜜雪冰城（广绣大厦店）","chain_slug":"mixue","category_slug":"fast-food","address":"敦和路171号A1—103","city":null,"shop_id":"1799011873623015425","shop_code":"942414"}},{"type":"Feature","id":1274961783,"geometry":{"type":"Point","coordinates":[113.235283,23.155208]},"properties":{"id":1274961783,"name":"蜜雪冰城（鹅掌坦牌坊）","chain_slug":"mixue","category_slug":"fast-food","address":"同德街西槎路95号","city":"广东省广州市白云区","shop_id":"1424934642389479426","shop_code":"910065"}},{"type":"Feature","id":1289593415,"geometry":{"type":"Point","coordinates":[113.252225,23.129533]},"properties":{"id":1289593415,"name":"蜜雪冰城（西华路473号店）","chain_slug":"mixue","category_slug":"fast-food","address":"西华路473号","city":"广东省广州市越秀区","shop_id":"1874740041062969346","shop_code":"945825"}},{"type":"Feature","id":1393789709,"geometry":{"type":"Point","coordinates":[113.238061,23.114241]},"properties":{"id":1393789709,"name":"蜜雪冰城（永庆坊店）","chain_slug":"mixue","category_slug":"fast-food","address":"恩宁路118号首层","city":"广东省广州市荔湾区","shop_id":"1874627543710191618","shop_code":"945743"}},{"type":"Feature","id":1429717644,"geometry":{"type":"Point","coordinates":[113.329496,23.156544]},"properties":{"id":1429717644,"name":"蜜雪冰城（粤垦金燕店）","chain_slug":"mixue","category_slug":"fast-food","address":"粤垦路524号","city":"广东省广州市天河区","shop_id":"1904091700859691009","shop_code":"948534"}},{"type":"Feature","id":1430440433,"geometry":{"type":"Point","coordinates":[113.332012,23.08626]},"properties":{"id":1430440433,"name":"蜜雪冰城（大塘公交站店）","chain_slug":"mixue","category_slug":"fast-food","address":"江海大道红卫新村西华七巷7号","city":"广东省广州市海珠区","shop_id":"1424915178361692161","shop_code":"920969"}},{"type":"Feature","id":1436430478,"geometry":{"type":"Point","coordinates":[113.23743,23.07294]},"properties":{"id":1436430478,"name":"蜜雪冰城（坑口店）","chain_slug":"mixue","category_slug":"fast-food","address":"坑口村头南二巷20号101铺A11、A12、A13","city":"广东省广州市荔湾区","shop_id":"1502198605567172610","shop_code":"923886"}},{"type":"Feature","id":1440325856,"geometry":{"type":"Point","coordinates":[113.330973,23.120676]},"properties":{"id":1440325856,"name":"蜜雪冰城（猎德兴盛路店）","chain_slug":"mixue","category_slug":"fast-food","address":"兴盛路10号127铺","city":"广东省广州市天河区","shop_id":"1905075385557762050","shop_code":"948731"}},{"type":"Feature","id":1512489965,"geometry":{"type":"Point","coordinates":[113.241348,23.116574]},"properties":{"id":1512489965,"name":"蜜雪冰城（宝华路恒宝广场24小时营业门店）","chain_slug":"mixue","category_slug":"fast-food","address":"宝华路128号","city":null,"shop_id":"1765544326361960449","shop_code":"938163"}},{"type":"Feature","id":1534966238,"geometry":{"type":"Point","coordinates":[113.216297,23.108967]},"properties":{"id":1534966238,"name":"蜜雪冰城（芳村大道店）","chain_slug":"mixue","category_slug":"fast-food","address":"芳村大道西路58号首层","city":"广东省广州市荔湾区","shop_id":"1916774327072722946","shop_code":"950013"}},{"type":"Feature","id":1594548766,"geometry":{"type":"Point","coordinates":[113.17958,23.096055]},"properties":{"id":1594548766,"name":"蜜雪冰城（虎榜路店）","chain_slug":"mixue","category_slug":"fast-food","address":"盐步穗盐路以北华榜路虎榜市场自编B24，L6号铺位","city":null,"shop_id":"1780916369659965442","shop_code":"940520"}},{"type":"Feature","id":1604328944,"geometry":{"type":"Point","coordinates":[113.238537,23.125905]},"properties":{"id":1604328944,"name":"蜜雪冰城（中山八路店）","chain_slug":"mixue","category_slug":"fast-food","address":"中山八路 20号之一首层自编号7号铺","city":"广东省广州市荔湾区","shop_id":"1530105521270992897","shop_code":"925539"}},{"type":"Feature","id":1632950519,"geometry":{"type":"Point","coordinates":[113.253846,23.157871]},"properties":{"id":1632950519,"name":"蜜雪冰城（三元里瑶台店）","chain_slug":"mixue","category_slug":"fast-food","address":"矿泉街瑶台大街20号#首层之2","city":"广东省广州市越秀区","shop_id":"1894677764641017858","shop_code":"947516"}},{"type":"Feature","id":1638489235,"geometry":{"type":"Point","coordinates":[113.323016,23.094757]},"properties":{"id":1638489235,"name":"蜜雪冰城（客村店）","chain_slug":"mixue","category_slug":"fast-food","address":"艺苑南路8号9号铺","city":"广东省广州市海珠区","shop_id":"1424940970177175553","shop_code":"902249"}},{"type":"Feature","id":1647297048,"geometry":{"type":"Point","coordinates":[113.223245,23.196068]},"properties":{"id":1647297048,"name":"蜜雪冰城（凰岗店）","chain_slug":"mixue","category_slug":"fast-food","address":"凰岗鸣盛大街6号","city":"广东省广州市白云区","shop_id":"1509029040368971778","shop_code":"924425"}},{"type":"Feature","id":1662797541,"geometry":{"type":"Point","coordinates":[113.319959,23.174173]},"properties":{"id":1662797541,"name":"蜜雪冰城（广东工贸门口店）","chain_slug":"mixue","category_slug":"fast-food","address":"广州大道北1112号","city":"广东省广州市天河区","shop_id":"1890214020066197506","shop_code":"947075"}},{"type":"Feature","id":1665949009,"geometry":{"type":"Point","coordinates":[113.229806,23.144734]},"properties":{"id":1665949009,"name":"蜜雪冰城高桥路店","chain_slug":"mixue","category_slug":"fast-food","address":"高桥路25号","city":null,"shop_id":"1794925392558182401","shop_code":"942048"}},{"type":"Feature","id":1674290597,"geometry":{"type":"Point","coordinates":[113.247114,23.082909]},"properties":{"id":1674290597,"name":"蜜雪冰城（沙涌店）","chain_slug":"mixue","category_slug":"fast-food","address":"芳村大道沙洲街1-6座首层沙涌综合市场105.106.107铺","city":"广东省广州市荔湾区","shop_id":"1879815639665885185","shop_code":"946214"}},{"type":"Feature","id":1679491097,"geometry":{"type":"Point","coordinates":[113.327153,23.162304]},"properties":{"id":1679491097,"name":"蜜雪冰城（燕塘地铁口店）","chain_slug":"mixue","category_slug":"fast-food","address":"燕塘路33号101铺","city":null,"shop_id":"1774006639746240513","shop_code":"939555"}},{"type":"Feature","id":1703213274,"geometry":{"type":"Point","coordinates":[113.252093,23.168654]},"properties":{"id":1703213274,"name":"蜜雪冰城（沙涌北店）","chain_slug":"mixue","category_slug":"fast-food","address":"沙涌北大街2号104房","city":"广东省广州市白云区","shop_id":"1424920098967515138","shop_code":"918155"}},{"type":"Feature","id":1709964930,"geometry":{"type":"Point","coordinates":[113.213454,23.065025]},"properties":{"id":1709964930,"name":"蜜雪冰城（菊树地铁B口店）","chain_slug":"mixue","category_slug":"fast-food","address":"中南街海南水口三街1号之四自编A103","city":null,"shop_id":"1789951064825544705","shop_code":"941595"}},{"type":"Feature","id":1734597005,"geometry":{"type":"Point","coordinates":[113.327946,23.130204]},"properties":{"id":1734597005,"name":"蜜雪冰城（广州旗舰店现磨咖啡上新）","chain_slug":"mixue","category_slug":"fast-food","address":"体育东路39-45号潮流天地购物中心","city":"广东省广州市天河区","shop_id":"1998959313091182593","shop_code":"95285101"}},{"type":"Feature","id":1738116347,"geometry":{"type":"Point","coordinates":[113.283428,23.093918]},"properties":{"id":1738116347,"name":"蜜雪冰城（晓港店）","chain_slug":"mixue","category_slug":"fast-food","address":"昌岗东路299号之四","city":"广东省广州市海珠区","shop_id":"1888857416905404418","shop_code":"946642"}},{"type":"Feature","id":1780991520,"geometry":{"type":"Point","coordinates":[113.342294,23.172362]},"properties":{"id":1780991520,"name":"蜜雪冰城（天河客运站D口店）","chain_slug":"mixue","category_slug":"fast-food","address":"元岗横路16号5栋102铺","city":"广东省广州市天河区","shop_id":"1892831199420882946","shop_code":"947316"}},{"type":"Feature","id":1795125504,"geometry":{"type":"Point","coordinates":[113.30941,23.136375]},"properties":{"id":1795125504,"name":"蜜雪冰城（越秀水荫路店）","chain_slug":"mixue","category_slug":"fast-food","address":"水荫路34号大院自编1、3号首层104号铺","city":"广东省广州市越秀区","shop_id":"1932025649233584130","shop_code":"951391"}},{"type":"Feature","id":1810744753,"geometry":{"type":"Point","coordinates":[113.259562,23.090458]},"properties":{"id":1810744753,"name":"蜜雪冰城（沙园店）","chain_slug":"mixue","category_slug":"fast-food","address":"工业大道97号自编17号","city":"广东省广州市海珠区","shop_id":"1516332602933440513","shop_code":"924784"}},{"type":"Feature","id":1823027675,"geometry":{"type":"Point","coordinates":[113.27742,23.082388]},"properties":{"id":1823027675,"name":"蜜雪冰城（燕汇广场店）","chain_slug":"mixue","category_slug":"fast-food","address":"江燕路108号自编2号1栋A11-A12铺","city":"广东省广州市海珠区","shop_id":"1638370368068661250","shop_code":"931423"}},{"type":"Feature","id":1862946101,"geometry":{"type":"Point","coordinates":[113.239968,23.191397]},"properties":{"id":1862946101,"name":"蜜雪冰城（潭村店）","chain_slug":"mixue","category_slug":"fast-food","address":"石井街潭村大赤路17号5栋105","city":"广东省广州市白云区","shop_id":"1994678475365163010","shop_code":"953291"}},{"type":"Feature","id":1880587084,"geometry":{"type":"Point","coordinates":[113.269946,23.163231]},"properties":{"id":1880587084,"name":"蜜雪冰城-广园店","chain_slug":"mixue","category_slug":"fast-food","address":"广园中路景泰北街1号103房之一","city":null,"shop_id":"1794931335970865154","shop_code":"942050"}},{"type":"Feature","id":1884329653,"geometry":{"type":"Point","coordinates":[113.191873,23.114218]},"properties":{"id":1884329653,"name":"蜜雪冰城（财源广场店）","chain_slug":"mixue","category_slug":"fast-food","address":"大沥镇黄岐宏威路4号财源广场C3、C3A、C5、C6号场地","city":"广东省佛山市南海区","shop_id":"1424916058795798530","shop_code":"920692"}},{"type":"Feature","id":1897574067,"geometry":{"type":"Point","coordinates":[113.269215,23.202915]},"properties":{"id":1897574067,"name":"蜜雪冰城（白云汇广场店）","chain_slug":"mixue","category_slug":"fast-food","address":"黄石东路88号1层G08，G09号商铺","city":"广东省广州市白云区","shop_id":"1872885662408118273","shop_code":"945245"}},{"type":"Feature","id":1905176255,"geometry":{"type":"Point","coordinates":[113.312419,23.083537]},"properties":{"id":1905176255,"name":"蜜雪冰城（海珠万达3号门店）","chain_slug":"mixue","category_slug":"fast-food","address":"广州大道南978号101铺之五十六、七十一","city":"广东省广州市海珠区","shop_id":"2004021529276465154","shop_code":"954224"}},{"type":"Feature","id":1913745537,"geometry":{"type":"Point","coordinates":[113.202118,23.107913]},"properties":{"id":1913745537,"name":"蜜雪冰城（漖表店）","chain_slug":"mixue","category_slug":"fast-food","address":"大沥镇漖表联社向阳仓（磨药房）二号","city":"广东省佛山市南海区","shop_id":"1932691824565219329","shop_code":"951426"}},{"type":"Feature","id":1923562834,"geometry":{"type":"Point","coordinates":[113.205854,23.177924]},"properties":{"id":1923562834,"name":"蜜雪冰城(沙田中心)","chain_slug":"mixue","category_slug":"fast-food","address":"里广路9号沙田中心B119","city":"广东省佛山市南海区","shop_id":"1656944224022732801","shop_code":"932601"}},{"type":"Feature","id":1931483278,"geometry":{"type":"Point","coordinates":[113.201872,23.115026]},"properties":{"id":1931483278,"name":"蜜雪冰城(富威大厦店)","chain_slug":"mixue","category_slug":"fast-food","address":"大沥镇黄岐乡府路富威大厦一层自编17之18号","city":"广东省佛山市南海区","shop_id":"1631179797512204289","shop_code":"930841"}},{"type":"Feature","id":1950711488,"geometry":{"type":"Point","coordinates":[113.29438,23.067967]},"properties":{"id":1950711488,"name":"蜜雪冰城（瑞宝花园店）","chain_slug":"mixue","category_slug":"fast-food","address":"广州市海珠区南洲路宝和街87号","city":"广东省广州市海珠区","shop_id":"2032367077721010178","shop_code":"955987"}},{"type":"Feature","id":1961461961,"geometry":{"type":"Point","coordinates":[113.295179,23.121856]},"properties":{"id":1961461961,"name":"蜜雪冰城(东山口店)","chain_slug":"mixue","category_slug":"fast-food","address":"东山口庙前直街28号首层","city":"广东省广州市越秀区","shop_id":"1424921086999371778","shop_code":"917404"}},{"type":"Feature","id":1996347759,"geometry":{"type":"Point","coordinates":[113.284268,23.126419]},"properties":{"id":1996347759,"name":"蜜雪冰城（烈士陵园A口未来城店）","chain_slug":"mixue","category_slug":"fast-food","address":"中山三路中华广场B1层未来城（10AM）","city":"广东省广州市越秀区","shop_id":"1424942524992450562","shop_code":"903438"}},{"type":"Feature","id":2018968940,"geometry":{"type":"Point","coordinates":[113.209156,23.114331]},"properties":{"id":2018968940,"name":"蜜雪冰城（滘口地铁站店）","chain_slug":"mixue","category_slug":"fast-food","address":"芳村大道西533号外场区域106号餐车","city":null,"shop_id":"1791363068261994498","shop_code":"941783"}},{"type":"Feature","id":2028025684,"geometry":{"type":"Point","coordinates":[113.321695,23.130471]},"properties":{"id":2028025684,"name":"蜜雪冰城（体育西路地铁H口店)","chain_slug":"mixue","category_slug":"fast-food","address":"体育西路50号107房部分自编之二","city":"广东省广州市天河区","shop_id":"1887024914247061505","shop_code":"946347"}},{"type":"Feature","id":2032308910,"geometry":{"type":"Point","coordinates":[113.187958,23.109398]},"properties":{"id":2032308910,"name":"蜜雪冰城（黄岐金铂天地店）","chain_slug":"mixue","category_slug":"fast-food","address":"大沥镇黄岐段广佛路121号负二层B239/240号商铺","city":"广东省佛山市南海区","shop_id":"1505785542308446210","shop_code":"924166"}},{"type":"Feature","id":2099985443,"geometry":{"type":"Point","coordinates":[113.178998,23.08573]},"properties":{"id":2099985443,"name":"蜜雪冰城（盐步市场店）","chain_slug":"mixue","category_slug":"fast-food","address":"大沥镇盐步青龙南17号","city":"广东省佛山市南海区","shop_id":"1424919712135880705","shop_code":"918456"}},{"type":"Feature","id":2155159858,"geometry":{"type":"Point","coordinates":[113.270339,23.094767]},"properties":{"id":2155159858,"name":"蜜雪冰城（江南西路店）","chain_slug":"mixue","category_slug":"fast-food","address":"江南西路56号","city":"广东省广州市海珠区","shop_id":"1456156817243967490","shop_code":"922278"}},{"type":"Feature","id":2156789587,"geometry":{"type":"Point","coordinates":[113.307199,23.087366]},"properties":{"id":2156789587,"name":"蜜雪冰城（鹭江西街店）","chain_slug":"mixue","category_slug":"fast-food","address":"新港街道鹭江路西街57号","city":"广东省广州市海珠区","shop_id":"1448241245757308929","shop_code":"913195"}},{"type":"Feature","id":2179210043,"geometry":{"type":"Point","coordinates":[113.333729,23.184152]},"properties":{"id":2179210043,"name":"蜜雪冰城（南方医科大学店）","chain_slug":"mixue","category_slug":"fast-food","address":"南方医科大学学三食堂","city":"广东省广州市白云区","shop_id":"1770738419538997249","shop_code":"939081"}},{"type":"Feature","id":2215259264,"geometry":{"type":"Point","coordinates":[113.307283,23.124675]},"properties":{"id":2215259264,"name":"蜜雪冰城（共和村店）","chain_slug":"mixue","category_slug":"fast-food","address":"梅花村街道共和村24栋106房","city":"广东省广州市越秀区","shop_id":"1922467473265979393","shop_code":"950473"}},{"type":"Feature","id":2223180091,"geometry":{"type":"Point","coordinates":[113.189611,23.109169]},"properties":{"id":2223180091,"name":"蜜雪冰城（嘉洲广场东门店）","chain_slug":"mixue","category_slug":"fast-food","address":"大沥镇黄岐广佛一路 98 号嘉洲广场一层1C-103号铺","city":"广东省佛山市南海区","shop_id":"1424942346638061570","shop_code":"900095"}},{"type":"Feature","id":2234728758,"geometry":{"type":"Point","coordinates":[113.313011,23.15141]},"properties":{"id":2234728758,"name":"蜜雪冰城（沙河地铁口店）","chain_slug":"mixue","category_slug":"fast-food","address":"先烈东路东街23号之一自编05铺","city":"广东省广州市天河区","shop_id":"1798202433952972801","shop_code":"942328"}},{"type":"Feature","id":2243410089,"geometry":{"type":"Point","coordinates":[113.266565,23.171577]},"properties":{"id":2243410089,"name":"蜜雪冰城（白云万达金街店）","chain_slug":"mixue","category_slug":"fast-food","address":"云城南二路万达金街185号133房","city":"广东省广州市白云区","shop_id":"1424928168804851714","shop_code":"914002"}},{"type":"Feature","id":2253136122,"geometry":{"type":"Point","coordinates":[113.266707,23.162509]},"properties":{"id":2253136122,"name":"蜜雪冰城（松柏店）","chain_slug":"mixue","category_slug":"fast-food","address":"松柏东街62号104.105铺","city":"广东省广州市白云区","shop_id":"1916385873130311682","shop_code":"949879"}},{"type":"Feature","id":2266500888,"geometry":{"type":"Point","coordinates":[113.221162,23.105784]},"properties":{"id":2266500888,"name":"蜜雪冰城（石围塘店）","chain_slug":"mixue","category_slug":"fast-food","address":"石围塘街道芳村大道中560-10号","city":"广东省广州市荔湾区","shop_id":"2006645768647241730","shop_code":"954487"}},{"type":"Feature","id":2276621107,"geometry":{"type":"Point","coordinates":[113.323083,23.158347]},"properties":{"id":2276621107,"name":"蜜雪冰城（天平架地铁站店）","chain_slug":"mixue","category_slug":"fast-food","address":"兴华路28号B栋1001号","city":"广东省广州市天河区","shop_id":"1930557503079378946","shop_code":"951367"}},{"type":"Feature","id":2300308272,"geometry":{"type":"Point","coordinates":[113.259203,23.19722]},"properties":{"id":2300308272,"name":"蜜雪冰城（汇侨新城店）","chain_slug":"mixue","category_slug":"fast-food","address":"汇侨路19号123铺之二","city":"广东省广州市白云区","shop_id":"1998572371472183298","shop_code":"953499"}},{"type":"Feature","id":2339107717,"geometry":{"type":"Point","coordinates":[113.24795,23.114998]},"properties":{"id":2339107717,"name":"蜜雪冰城（上下九广场店）","chain_slug":"mixue","category_slug":"fast-food","address":"下九路58、60 号首层","city":null,"shop_id":"1784484030725623809","shop_code":"940986"}},{"type":"Feature","id":2478687384,"geometry":{"type":"Point","coordinates":[113.310079,23.11984]},"properties":{"id":2478687384,"name":"蜜雪冰城（寺右新马路店）","chain_slug":"mixue","category_slug":"fast-food","address":"寺右新马路73号105铺（部位：之二）","city":"广东省广州市越秀区","shop_id":"1876585196598464514","shop_code":"946054"}},{"type":"Feature","id":2481127134,"geometry":{"type":"Point","coordinates":[113.280796,23.081372]},"properties":{"id":2481127134,"name":"蜜雪冰城（江泰路地铁D口店）","chain_slug":"mixue","category_slug":"fast-food","address":"南珠北街18号自编L1–004号","city":"广东省广州市海珠区","shop_id":"1910512654066319362","shop_code":"949304"}},{"type":"Feature","id":2505419348,"geometry":{"type":"Point","coordinates":[113.246996,23.122753]},"properties":{"id":2505419348,"name":"蜜雪冰城（龙津中路店）","chain_slug":"mixue","category_slug":"fast-food","address":"龙津中路570号首层自编102铺","city":"广东省广州市荔湾区","shop_id":"1927975374915006465","shop_code":"951121"}},{"type":"Feature","id":2512954862,"geometry":{"type":"Point","coordinates":[113.226806,23.177671]},"properties":{"id":2512954862,"name":"蜜雪冰城（龙骏广场店）","chain_slug":"mixue","category_slug":"fast-food","address":"增槎路1068号（龙骏广场内风情街14号商铺）","city":"广东省广州市白云区","shop_id":"1424920404103766018","shop_code":"917926"}},{"type":"Feature","id":2537751154,"geometry":{"type":"Point","coordinates":[113.286303,23.067116]},"properties":{"id":2537751154,"name":"蜜雪冰城(石溪地铁站B出口店)","chain_slug":"mixue","category_slug":"fast-food","address":"工业大道南742号101房","city":"广东省广州市海珠区","shop_id":"1425349684427616257","shop_code":"921061"}},{"type":"Feature","id":2547455684,"geometry":{"type":"Point","coordinates":[113.322283,23.082423]},"properties":{"id":2547455684,"name":"蜜雪冰城（（万德信百货店））","chain_slug":"mixue","category_slug":"fast-food","address":"大塘马基大街12号万德信百货1楼商铺A01A","city":"广东省广州市海珠区","shop_id":"1430407828874977281","shop_code":"921337"}},{"type":"Feature","id":2558845765,"geometry":{"type":"Point","coordinates":[113.195142,23.071414]},"properties":{"id":2558845765,"name":"蜜雪冰城（凤池市场店）","chain_slug":"mixue","category_slug":"fast-food","address":"海龙街道裕海路外铺9号","city":null,"shop_id":"1780926636934475777","shop_code":"940534"}},{"type":"Feature","id":2560300018,"geometry":{"type":"Point","coordinates":[113.327946,23.130204]},"properties":{"id":2560300018,"name":"蜜雪冰城（广州旗舰店专属饮品）","chain_slug":"mixue","category_slug":"fast-food","address":"体育东路39-45号潮流天地购物中心","city":"广东省广州市天河区","shop_id":"1971103989936312321","shop_code":"952851"}},{"type":"Feature","id":2565830443,"geometry":{"type":"Point","coordinates":[113.208606,23.151415]},"properties":{"id":2565830443,"name":"蜜雪冰城（沙贝店）","chain_slug":"mixue","category_slug":"fast-food","address":"金满楼4号铺","city":"广东省广州市白云区","shop_id":"1910232333475315713","shop_code":"949157"}},{"type":"Feature","id":2565939290,"geometry":{"type":"Point","coordinates":[113.237671,23.17311]},"properties":{"id":2565939290,"name":"蜜雪冰城（横滘店）","chain_slug":"mixue","category_slug":"fast-food","address":"同德街横滘路45号103铺","city":"广东省广州市白云区","shop_id":"1495660482550431746","shop_code":"923306"}},{"type":"Feature","id":2567640810,"geometry":{"type":"Point","coordinates":[113.266805,23.120315]},"properties":{"id":2567640810,"name":"蜜雪冰城（北京路书坊街店）","chain_slug":"mixue","category_slug":"fast-food","address":"惠福东路书坊街4号之五商铺","city":"广东省广州市越秀区","shop_id":"2000439050548428802","shop_code":"953743"}},{"type":"Feature","id":2584897523,"geometry":{"type":"Point","coordinates":[113.324048,23.118696]},"properties":{"id":2584897523,"name":"蜜雪冰城（花城汇店）","chain_slug":"mixue","category_slug":"fast-food","address":"花城大道89号之一负一层3001号商铺（B23-B5）","city":"广东省广州市天河区","shop_id":"1887037071730810882","shop_code":"946843"}},{"type":"Feature","id":2588994804,"geometry":{"type":"Point","coordinates":[113.189338,23.095569]},"properties":{"id":2588994804,"name":"蜜雪冰城（金银湾广场店）","chain_slug":"mixue","category_slug":"fast-food","address":"大沥镇盐步河东中心路3号之3第一层1012号商铺","city":"广东省佛山市禅城区","shop_id":"2026172750959366145","shop_code":"955504"}},{"type":"Feature","id":2604011005,"geometry":{"type":"Point","coordinates":[113.292588,23.070432]},"properties":{"id":2604011005,"name":"蜜雪冰城（东晓南店）","chain_slug":"mixue","category_slug":"fast-food","address":"南洲路晓港湾文华街52号","city":"广东省广州市海珠区","shop_id":"1424919643730976769","shop_code":"918509"}},{"type":"Feature","id":2620911866,"geometry":{"type":"Point","coordinates":[113.2957,23.125395]},"properties":{"id":2620911866,"name":"蜜雪冰城（东山现代城店）","chain_slug":"mixue","category_slug":"fast-food","address":"农林下路4号东山锦轩现代城1楼","city":"广东省广州市越秀区","shop_id":"2004448621638062082","shop_code":"954262"}},{"type":"Feature","id":2651662293,"geometry":{"type":"Point","coordinates":[113.208065,23.156298]},"properties":{"id":2651662293,"name":"蜜雪冰城（金沙洲店）","chain_slug":"mixue","category_slug":"fast-food","address":"金沙洲横沙大街212号","city":"广东省广州市白云区","shop_id":"1424930406956134402","shop_code":"911991"}},{"type":"Feature","id":2698933737,"geometry":{"type":"Point","coordinates":[113.325771,23.081731]},"properties":{"id":2698933737,"name":"蜜雪冰城（聚德店）","chain_slug":"mixue","category_slug":"fast-food","address":"汇源九巷5号首层自编102号","city":null,"shop_id":"1775102193398108161","shop_code":"939685"}},{"type":"Feature","id":2738688235,"geometry":{"type":"Point","coordinates":[113.295301,23.134833]},"properties":{"id":2738688235,"name":"蜜雪冰城（区庄地铁口店）","chain_slug":"mixue","category_slug":"fast-food","address":"环市东路421号14号首层铺位","city":"广东省广州市越秀区","shop_id":"1926203823525875713","shop_code":"950956"}},{"type":"Feature","id":2743235982,"geometry":{"type":"Point","coordinates":[113.313233,23.083242]},"properties":{"id":2743235982,"name":"蜜雪冰城（海珠万达负一层店）","chain_slug":"mixue","category_slug":"fast-food","address":"广州海珠万达广场负一楼B1层B1032号铺","city":"广东省广州市海珠区","shop_id":"1465596012218417154","shop_code":"922555"}},{"type":"Feature","id":2760933388,"geometry":{"type":"Point","coordinates":[113.26155,23.13098]},"properties":{"id":2760933388,"name":"蜜雪冰城（纪念堂店）","chain_slug":"mixue","category_slug":"fast-food","address":"百灵路2号101房","city":"广东省广州市越秀区","shop_id":"1902240583339126785","shop_code":"948320"}},{"type":"Feature","id":2773475398,"geometry":{"type":"Point","coordinates":[113.267906,23.125402]},"properties":{"id":2773475398,"name":"蜜雪冰城（中山五路店）","chain_slug":"mixue","category_slug":"fast-food","address":"中山五路33号大马站商业中心一层04号铺","city":"广东省广州市越秀区","shop_id":"1912752433885544450","shop_code":"949557"}},{"type":"Feature","id":2790448185,"geometry":{"type":"Point","coordinates":[113.322187,23.091668]},"properties":{"id":2790448185,"name":"蜜雪冰城（华军科技谷客村美食广场店）","chain_slug":"mixue","category_slug":"fast-food","address":"赤岗西路218,220号自编E幢116号铺","city":null,"shop_id":"1785507744183361537","shop_code":"941134"}},{"type":"Feature","id":2793028311,"geometry":{"type":"Point","coordinates":[113.320296,23.179864]},"properties":{"id":2793028311,"name":"蜜雪冰城（梅花园佳润广场店）","chain_slug":"mixue","category_slug":"fast-food","address":"广州大道北梅花园街6号自编2号","city":"广东省广州市白云区","shop_id":"1424923480163741697","shop_code":"915488"}},{"type":"Feature","id":2869332011,"geometry":{"type":"Point","coordinates":[113.274524,23.126723]},"properties":{"id":2869332011,"name":"蜜雪冰城（农讲所地铁D口店）","chain_slug":"mixue","category_slug":"fast-food","address":"中山四路112-116号首层B铺","city":"广东省广州市越秀区","shop_id":"2005150788623683586","shop_code":"954294"}},{"type":"Feature","id":2871623060,"geometry":{"type":"Point","coordinates":[113.239854,23.141376]},"properties":{"id":2871623060,"name":"蜜雪冰城环市西苑店","chain_slug":"mixue","category_slug":"fast-food","address":"环市西路35号铺位","city":"广东省广州市荔湾区","shop_id":"1889491742055608322","shop_code":"947002"}},{"type":"Feature","id":2882285652,"geometry":{"type":"Point","coordinates":[113.326775,23.186044]},"properties":{"id":2882285652,"name":"蜜雪冰城（京溪地铁店）","chain_slug":"mixue","category_slug":"fast-food","address":"京溪街白灰场五巷一号","city":"广东省广州市白云区","shop_id":"1424921113033416706","shop_code":"917335"}},{"type":"Feature","id":2907685567,"geometry":{"type":"Point","coordinates":[113.219417,23.123474]},"properties":{"id":2907685567,"name":"蜜雪冰城（坦尾地铁站店）","chain_slug":"mixue","category_slug":"fast-food","address":"桥中街道桥中南路4号一楼106铺","city":"广东省广州市荔湾区","shop_id":"2006610837061656578","shop_code":"954407"}},{"type":"Feature","id":2918182843,"geometry":{"type":"Point","coordinates":[113.248752,23.131305]},"properties":{"id":2918182843,"name":"蜜雪冰城（港丰大厦西华路274号店）","chain_slug":"mixue","category_slug":"fast-food","address":"西华路274号","city":null,"shop_id":"1703615355102068738","shop_code":"935124"}},{"type":"Feature","id":2953142806,"geometry":{"type":"Point","coordinates":[113.21744,23.056573]},"properties":{"id":2953142806,"name":"蜜雪冰城（菊树棉村店）","chain_slug":"mixue","category_slug":"fast-food","address":"增南路134号","city":"广东省广州市荔湾区","shop_id":"1629009575741120513","shop_code":"930679"}},{"type":"Feature","id":2976814362,"geometry":{"type":"Point","coordinates":[113.23316,23.125278]},"properties":{"id":2976814362,"name":"蜜雪冰城（中山八地铁店）","chain_slug":"mixue","category_slug":"fast-food","address":"中山八路广鸿童装城1楼C01档口","city":"广东省广州市荔湾区","shop_id":"1934080795350335489","shop_code":"951735"}},{"type":"Feature","id":2984943636,"geometry":{"type":"Point","coordinates":[113.238968,23.180929]},"properties":{"id":2984943636,"name":"蜜雪冰城（聚龙店）","chain_slug":"mixue","category_slug":"fast-food","address":"西槎路872号107铺","city":"广东省广州市白云区","shop_id":"1424918741116121090","shop_code":"919727"}},{"type":"Feature","id":2988629037,"geometry":{"type":"Point","coordinates":[113.279022,23.207562]},"properties":{"id":2988629037,"name":"蜜雪冰城（江夏24小时营业店）","chain_slug":"mixue","category_slug":"fast-food","address":"黄石东路江夏东一路6号之飞翔商贸城A栋首层A2号商铺","city":"广东省广州市白云区","shop_id":"1424931640521912322","shop_code":"910926"}},{"type":"Feature","id":3000416839,"geometry":{"type":"Point","coordinates":[113.258232,23.103489]},"properties":{"id":3000416839,"name":"蜜雪冰城（海珠区少年宫店）","chain_slug":"mixue","category_slug":"fast-food","address":"同福中路340号","city":"广东省广州市海珠区","shop_id":"1874629381427707906","shop_code":"945434"}},{"type":"Feature","id":3000570798,"geometry":{"type":"Point","coordinates":[113.270213,23.118173]},"properties":{"id":3000570798,"name":"蜜雪冰城（北京路地铁A1出口店）","chain_slug":"mixue","category_slug":"fast-food","address":"北京路68号北京大厦1043A、1043B","city":"广东省广州市越秀区","shop_id":"1493497253543936001","shop_code":"923181"}},{"type":"Feature","id":3001595490,"geometry":{"type":"Point","coordinates":[113.278574,23.091535]},"properties":{"id":3001595490,"name":"蜜雪冰城（江南坊店）","chain_slug":"mixue","category_slug":"fast-food","address":"昌岗东路252号江南坊一层L1-10B+16铺","city":"广东省广州市海珠区","shop_id":"1543869422920089602","shop_code":"926476"}},{"type":"Feature","id":3034720246,"geometry":{"type":"Point","coordinates":[113.201086,23.13835]},"properties":{"id":3034720246,"name":"蜜雪冰城（浪险猴店）","chain_slug":"mixue","category_slug":"fast-food","address":"大沥镇黄岐白沙陈溪新村北约街1号地铺","city":"广东省佛山市南海区","shop_id":"1640307707149950977","shop_code":"931589"}},{"type":"Feature","id":3046307166,"geometry":{"type":"Point","coordinates":[113.327329,23.197918]},"properties":{"id":3046307166,"name":"蜜雪冰城（同和地铁D出口店）","chain_slug":"mixue","category_slug":"fast-food","address":"同和街道白山东路丽庭居商业街A2区，A205、A206档","city":"广东省广州市白云区","shop_id":"1424929840515379201","shop_code":"913125"}},{"type":"Feature","id":3085091520,"geometry":{"type":"Point","coordinates":[113.196371,23.067188]},"properties":{"id":3085091520,"name":"蜜雪冰城（龙溪店）","chain_slug":"mixue","category_slug":"fast-food","address":"龙溪大道68号尚+创意园一层01单元商铺","city":"广东省广州市荔湾区","shop_id":"1642332984969412609","shop_code":"931732"}},{"type":"Feature","id":3119347178,"geometry":{"type":"Point","coordinates":[113.322735,23.079684]},"properties":{"id":3119347178,"name":"蜜雪冰城（桥南新街地铁口店）","chain_slug":"mixue","category_slug":"fast-food","address":"桥南新街西十一巷1楼","city":"广东省广州市海珠区","shop_id":"1904709478989828098","shop_code":"948575"}},{"type":"Feature","id":3120361209,"geometry":{"type":"Point","coordinates":[113.286276,23.122189]},"properties":{"id":3120361209,"name":"蜜雪冰城（东川路店）","chain_slug":"mixue","category_slug":"fast-food","address":"东川路70号地下","city":"广东省广州市越秀区","shop_id":"2026189885051924481","shop_code":"955470"}},{"type":"Feature","id":3124051278,"geometry":{"type":"Point","coordinates":[113.244151,23.128495]},"properties":{"id":3124051278,"name":"蜜雪冰城（唐铭广场店）","chain_slug":"mixue","category_slug":"fast-food","address":"荔湾路78号自编18号一层B-001","city":"广东省广州市荔湾区","shop_id":"1900724428724146177","shop_code":"948106"}},{"type":"Feature","id":3133487272,"geometry":{"type":"Point","coordinates":[113.281801,23.126789]},"properties":{"id":3133487272,"name":"蜜雪冰城（中山三路店）","chain_slug":"mixue","category_slug":"fast-food","address":"中山三路71号首层","city":"广东省广州市越秀区","shop_id":"1925002609631051778","shop_code":"950780"}},{"type":"Feature","id":3196816747,"geometry":{"type":"Point","coordinates":[113.275344,23.124742]},"properties":{"id":3196816747,"name":"蜜雪冰城（德政中路店）","chain_slug":"mixue","category_slug":"fast-food","address":"德政中路279号","city":"广东省广州市越秀区","shop_id":"1424916301210427394","shop_code":"920618"}},{"type":"Feature","id":3217118953,"geometry":{"type":"Point","coordinates":[113.293346,23.103641]},"properties":{"id":3217118953,"name":"蜜雪冰城（滨江宏岸店）","chain_slug":"mixue","category_slug":"fast-food","address":"广州市海珠区滨江东路31、39号108、109铺部分一楼自编8A号商铺","city":"广东省广州市海珠区","shop_id":"2010628642207596546","shop_code":"954954"}},{"type":"Feature","id":3245702581,"geometry":{"type":"Point","coordinates":[113.245905,23.113438]},"properties":{"id":3245702581,"name":"蜜雪冰城（上下九十八甫店）","chain_slug":"mixue","category_slug":"fast-food","address":"第十甫路178号A23A31连铺","city":"广东省广州市荔湾区","shop_id":"1424928271347195905","shop_code":"913285"}},{"type":"Feature","id":3305480962,"geometry":{"type":"Point","coordinates":[113.313531,23.100901]},"properties":{"id":3305480962,"name":"蜜雪冰城（金菊路店）","chain_slug":"mixue","category_slug":"fast-food","address":"金菊路12号自编B18号02","city":null,"shop_id":"1671091688820613122","shop_code":"933321"}},{"type":"Feature","id":3305709315,"geometry":{"type":"Point","coordinates":[113.212334,23.075212]},"properties":{"id":3305709315,"name":"蜜雪冰城（增滘店）","chain_slug":"mixue","category_slug":"fast-food","address":"龙溪中路143号、145号商铺","city":"广东省广州市荔湾区","shop_id":"1551838051468746753","shop_code":"927217"}},{"type":"Feature","id":3319881210,"geometry":{"type":"Point","coordinates":[113.221182,23.158495]},"properties":{"id":3319881210,"name":"蜜雪冰城（松北店）","chain_slug":"mixue","category_slug":"fast-food","address":"增槎路松北街12号","city":"广东省广州市白云区","shop_id":"1424922490878423041","shop_code":"916287"}},{"type":"Feature","id":3322679233,"geometry":{"type":"Point","coordinates":[113.233023,23.157959]},"properties":{"id":3322679233,"name":"蜜雪冰城（同德里店）","chain_slug":"mixue","category_slug":"fast-food","address":"广州市白云区同德街鹅掌坦后街12号","city":"广东省广州市白云区","shop_id":"1424916330326650882","shop_code":"920595"}},{"type":"Feature","id":3418029358,"geometry":{"type":"Point","coordinates":[113.236441,23.121999]},"properties":{"id":3418029358,"name":"蜜雪冰城（荔湾湖公园东门店）","chain_slug":"mixue","category_slug":"fast-food","address":"龙津西路157号之一101房自编之2","city":"广东省广州市荔湾区","shop_id":"2001196420257968129","shop_code":"953814"}},{"type":"Feature","id":3444633453,"geometry":{"type":"Point","coordinates":[113.253345,23.172956]},"properties":{"id":3444633453,"name":"蜜雪冰城(棠景路店)","chain_slug":"mixue","category_slug":"fast-food","address":"棠景西路85号之8、9号商铺","city":"广东省广州市白云区","shop_id":"1424931489556963330","shop_code":"911268"}},{"type":"Feature","id":3451202945,"geometry":{"type":"Point","coordinates":[113.320774,23.175666]},"properties":{"id":3451202945,"name":"蜜雪冰城（梅花园店）","chain_slug":"mixue","category_slug":"fast-food","address":"广州大道北怡新路28号","city":"广东省广州市天河区","shop_id":"1424931683908427778","shop_code":"905494"}},{"type":"Feature","id":3472356763,"geometry":{"type":"Point","coordinates":[113.255636,23.161224]},"properties":{"id":3472356763,"name":"蜜雪冰城(三元里大道店)","chain_slug":"mixue","category_slug":"fast-food","address":"三元里大道417号101铺","city":"广东省广州市越秀区","shop_id":"1424929447156772865","shop_code":"912556"}},{"type":"Feature","id":3500430982,"geometry":{"type":"Point","coordinates":[113.318439,23.171074]},"properties":{"id":3500430982,"name":"蜜雪冰城（金茂广场店）","chain_slug":"mixue","category_slug":"fast-food","address":"广州天河区兴华街道广州大道北980号101房之144号房","city":"广东省广州市天河区","shop_id":"2006937439024865282","shop_code":"954409"}},{"type":"Feature","id":3535372280,"geometry":{"type":"Point","coordinates":[113.270293,23.182489]},"properties":{"id":3535372280,"name":"蜜雪冰城（广州市儿童公园店）","chain_slug":"mixue","category_slug":"fast-food","address":"云城街道齐心路65号广州儿童公园110号底商","city":"广东省广州市白云区","shop_id":"1929781773760339970","shop_code":"951277"}},{"type":"Feature","id":3604926725,"geometry":{"type":"Point","coordinates":[113.32118,23.162292]},"properties":{"id":3604926725,"name":"蜜雪冰城(陶庄路店)","chain_slug":"mixue","category_slug":"fast-food","address":"陶庄路5号自编B107-3","city":null,"shop_id":"1782286841458905089","shop_code":"940689"}},{"type":"Feature","id":3654738367,"geometry":{"type":"Point","coordinates":[113.266776,23.121203]},"properties":{"id":3654738367,"name":"蜜雪冰城（北京路美食街店）","chain_slug":"mixue","category_slug":"fast-food","address":"惠福东路455号105铺","city":"广东省广州市越秀区","shop_id":"1916692351556915201","shop_code":"949944"}},{"type":"Feature","id":3675931401,"geometry":{"type":"Point","coordinates":[113.178618,23.089533]},"properties":{"id":3675931401,"name":"蜜雪冰城（盐步升宝广场店）","chain_slug":"mixue","category_slug":"fast-food","address":"大沥镇盐步环镇北路18号S003/S004铺","city":null,"shop_id":"1765334128359817217","shop_code":"938158"}},{"type":"Feature","id":3763411312,"geometry":{"type":"Point","coordinates":[113.257203,23.117242]},"properties":{"id":3763411312,"name":"蜜雪冰城（大德路店）","chain_slug":"mixue","category_slug":"fast-food","address":"人民街道大德路128号-2","city":"广东省广州市越秀区","shop_id":"1921850983307214850","shop_code":"950443"}},{"type":"Feature","id":3829017484,"geometry":{"type":"Point","coordinates":[113.228051,23.211748]},"properties":{"id":3829017484,"name":"蜜雪冰城（石井店）","chain_slug":"mixue","category_slug":"fast-food","address":"石沙公路万民广场F-1-010","city":"广东省广州市白云区","shop_id":"1424935534467608577","shop_code":"908258"}},{"type":"Feature","id":3834643930,"geometry":{"type":"Point","coordinates":[113.320835,23.134592]},"properties":{"id":3834643930,"name":"蜜雪冰城（维多利店）","chain_slug":"mixue","category_slug":"fast-food","address":"体育西路风雨长廊2-3号铺","city":"广东省广州市天河区","shop_id":"1912038181864378369","shop_code":"949470"}},{"type":"Feature","id":3834876148,"geometry":{"type":"Point","coordinates":[113.3319,23.155626]},"properties":{"id":3834876148,"name":"蜜雪冰城(粤垦路店)","chain_slug":"mixue","category_slug":"fast-food","address":"兴华街道粤垦路197号","city":"广东省广州市天河区","shop_id":"1424929826301517826","shop_code":"913112"}},{"type":"Feature","id":3889580137,"geometry":{"type":"Point","coordinates":[113.236514,23.169479]},"properties":{"id":3889580137,"name":"蜜雪冰城（上步路店）","chain_slug":"mixue","category_slug":"fast-food","address":"上步路20号","city":"广东省广州市白云区","shop_id":"1424932782539251714","shop_code":"910816"}},{"type":"Feature","id":3896737167,"geometry":{"type":"Point","coordinates":[113.318461,23.095791]},"properties":{"id":3896737167,"name":"蜜雪冰城(丽影广场店)","chain_slug":"mixue","category_slug":"fast-food","address":"新港中路350号之三1号铺","city":null,"shop_id":"1783420397652414465","shop_code":"940872"}},{"type":"Feature","id":4042836270,"geometry":{"type":"Point","coordinates":[113.265727,23.191063]},"properties":{"id":4042836270,"name":"蜜雪冰城（新市天地店）","chain_slug":"mixue","category_slug":"fast-food","address":"新市镇新市天地步行街G102","city":"广东省广州市白云区","shop_id":"1424936975681429505","shop_code":"908178"}},{"type":"Feature","id":4052704986,"geometry":{"type":"Point","coordinates":[113.307898,23.092513]},"properties":{"id":4052704986,"name":"蜜雪冰城（轻工店）","chain_slug":"mixue","category_slug":"fast-food","address":"鹭江西街13号A008号","city":"广东省广州市海珠区","shop_id":"1424922079547858946","shop_code":"916593"}},{"type":"Feature","id":4076146929,"geometry":{"type":"Point","coordinates":[113.242551,23.143755]},"properties":{"id":4076146929,"name":"蜜雪冰城（西湾路店）","chain_slug":"mixue","category_slug":"fast-food","address":"西湾路90.95.96号首层自编7号","city":null,"shop_id":"1773637754496897026","shop_code":"939513"}},{"type":"Feature","id":4091125203,"geometry":{"type":"Point","coordinates":[113.269789,23.074483]},"properties":{"id":4091125203,"name":"蜜雪冰城（燕岗广纸路店）","chain_slug":"mixue","category_slug":"fast-food","address":"广纸路23号首层106号","city":"广东省广州市海珠区","shop_id":"1980829493975191554","shop_code":"953027"}},{"type":"Feature","id":4093529501,"geometry":{"type":"Point","coordinates":[113.338367,23.17092]},"properties":{"id":4093529501,"name":"蜜雪冰城（广外元岗校区店）","chain_slug":"mixue","category_slug":"fast-food","address":"元岗路636号B139-1铺","city":"广东省广州市天河区","shop_id":"2011359003518595073","shop_code":"955005"}},{"type":"Feature","id":4106128431,"geometry":{"type":"Point","coordinates":[113.270984,23.085735]},"properties":{"id":4106128431,"name":"蜜雪冰城（宝岗汇店）","chain_slug":"mixue","category_slug":"fast-food","address":"昌岗中路128号之23号104铺","city":"广东省广州市海珠区","shop_id":"1524207283198423042","shop_code":"925188"}},{"type":"Feature","id":4127239725,"geometry":{"type":"Point","coordinates":[113.272022,23.136173]},"properties":{"id":4127239725,"name":"蜜雪冰城(小北路越秀公园店)","chain_slug":"mixue","category_slug":"fast-food","address":"小北路200号首层自编东4号铺","city":null,"shop_id":"1672062652542791682","shop_code":"933358"}},{"type":"Feature","id":4130660822,"geometry":{"type":"Point","coordinates":[113.195958,23.184334]},"properties":{"id":4130660822,"name":"蜜雪冰城（永润广场店）","chain_slug":"mixue","category_slug":"fast-food","address":"里水镇里广路50号永润广场三号楼首层1040号铺","city":"广东省佛山市南海区","shop_id":"1424935019143471105","shop_code":"909098"}},{"type":"Feature","id":4161190166,"geometry":{"type":"Point","coordinates":[113.269934,23.105294]},"properties":{"id":4161190166,"name":"蜜雪冰城（市二宫店）","chain_slug":"mixue","category_slug":"fast-food","address":"江南大道中74号之—01铺","city":"广东省广州市海珠区","shop_id":"1465214981608501250","shop_code":"922539"}},{"type":"Feature","id":4196005095,"geometry":{"type":"Point","coordinates":[113.197184,23.090526]},"properties":{"id":4196005095,"name":"蜜雪冰城（天隆城店）","chain_slug":"mixue","category_slug":"fast-food","address":"大沥镇盐步穗盐东路花地湾雍景豪园御景台338-351座12号商铺","city":"广东省佛山市南海区","shop_id":"2034200859788922882","shop_code":"955903"}},{"type":"Feature","id":4248680331,"geometry":{"type":"Point","coordinates":[113.277082,23.211086]},"properties":{"id":4248680331,"name":"蜜雪冰城（江夏青龙大街店）","chain_slug":"mixue","category_slug":"fast-food","address":"江夏青龙大街42号102铺","city":"广东省广州市白云区","shop_id":"1552903078070968322","shop_code":"927314"}},{"type":"Feature","id":4268040332,"geometry":{"type":"Point","coordinates":[113.239355,23.170722]},"properties":{"id":4268040332,"name":"蜜雪冰城（新南一路店）","chain_slug":"mixue","category_slug":"fast-food","address":"同德街道新南一路7号117铺","city":"广东省广州市白云区","shop_id":"1892404093729779713","shop_code":"947257"}}]}