{"type": "FeatureCollection", "features": [{"type": "Feature", "id": 964, "geometry": {"type": "Point", "coordinates": [121.442550082, 31.29947462]}, "properties": {"id": 964, "name": "闸北店", "chain_slug": "rt-mart", "category_slug": "supermarket", "address": "上海市闸北区共和新路3318号", "city": "上海市"}}, {"type": "Feature", "id": 965, "geometry": {"type": "Point", "coordinates": [121.517957967, 31.291109975]}, "properties": {"id": 965, "name": "杨浦店", "chain_slug": "rt-mart", "category_slug": "supermarket", "address": "上海市杨浦区黄兴路1618号", "city": "上海市"}}, {"type": "Feature", "id": 966, "geometry": {"type": "Point", "coordinates": [120.637108106, 31.328099625]}, "properties": {"id": 966, "name": "东环店", "chain_slug": "rt-mart", "category_slug": "supermarket", "address": "苏州市工业园区东环路1500号大道与东环路交叉口", "city": "苏州市"}}, {"type": "Feature", "id": 967, "geometry": {"type": "Point", "coordinates": [118.798243615, 32.035504022]}, "properties": {"id": 967, "name": "瑞金店", "chain_slug": "rt-mart", "category_slug": "supermarket", "address": "南京市秦淮区龙蟠中路260号", "city": "南京市"}}, {"type": "Feature", "id": 968, "geometry": {"type": "Point", "coordinates": [121.416852228, 31.282010501]}, "properties": {"id": 968, "name": "大华店", "chain_slug": "rt-mart", "category_slug": "supermarket", "address": "上海市华灵路1051号", "city": "上海市"}}, {"type": "Feature", "id": 969, "geometry": {"type": "Point", "coordinates": [120.710251438, 30.761688985]}, "properties": {"id": 969, "name": "秀洲店", "chain_slug": "rt-mart", "category_slug": "supermarket", "address": "嘉兴市中山西路611号", "city": "嘉兴市"}}, {"type": "Feature", "id": 970, "geometry": {"type": "Point", "coordinates": [120.761346703, 31.645222327]}, "properties": {"id": 970, "name": "常熟店", "chain_slug": "rt-mart", "category_slug": "supermarket", "address": "常熟市琴湖路168号", "city": "苏州市"}}, {"type": "Feature", "id": 971, "geometry": {"type": "Point", "coordinates": [119.970754326, 31.780423601]}, "properties": {"id": 971, "name": "关河店", "chain_slug": "rt-mart", "category_slug": "supermarket", "address": "常州市关河东路58号", "city": "常州市"}}, {"type": "Feature", "id": 972, "geometry": {"type": "Point", "coordinates": [120.862706729, 32.019294306]}, "properties": {"id": 972, "name": "八仙城店", "chain_slug": "rt-mart", "category_slug": "supermarket", "address": "南通市崇川区人民中路86号", "city": "南通市"}}, {"type": "Feature", "id": 973, "geometry": {"type": "Point", "coordinates": [119.392355387, 32.390745962]}, "properties": {"id": 973, "name": "邗江店", "chain_slug": "rt-mart", "category_slug": "supermarket", "address": "扬州市邗江路2号", "city": "扬州市"}}, {"type": "Feature", "id": 974, "geometry": {"type": "Point", "coordinates": [120.961788481, 31.375618376]}, "properties": {"id": 974, "name": "昆山店", "chain_slug": "rt-mart", "category_slug": "supermarket", "address": "江苏省昆山市玉山镇朝阳中路688号负一楼", "city": "苏州市"}}, {"type": "Feature", "id": 975, "geometry": {"type": "Point", "coordinates": [120.264772435, 31.560664625]}, "properties": {"id": 975, "name": "滨湖店", "chain_slug": "rt-mart", "category_slug": "supermarket", "address": "无锡市青祁路66号", "city": "无锡市"}}, {"type": "Feature", "id": 976, "geometry": {"type": "Point", "coordinates": [120.607468753, 31.284211657]}, "properties": {"id": 976, "name": "苏福店", "chain_slug": "rt-mart", "category_slug": "supermarket", "address": "苏州市解放东路13号", "city": "苏州市"}}, {"type": "Feature", "id": 977, "geometry": {"type": "Point", "coordinates": [120.528566277, 31.866373768]}, "properties": {"id": 977, "name": "张家港店", "chain_slug": "rt-mart", "category_slug": "supermarket", "address": "张家港市杨舍镇沙洲中路288号", "city": "苏州市"}}, {"type": "Feature", "id": 978, "geometry": {"type": "Point", "coordinates": [120.088470693, 30.875434896]}, "properties": {"id": 978, "name": "湖州店", "chain_slug": "rt-mart", "category_slug": "supermarket", "address": "湖州市滨河路666号", "city": "湖州市"}}, {"type": "Feature", "id": 979, "geometry": {"type": "Point", "coordinates": [117.159870275, 34.259140675]}, "properties": {"id": 979, "name": "西关建国店", "chain_slug": "rt-mart", "category_slug": "supermarket", "address": "徐州市煤建路8号", "city": "徐州市"}}, {"type": "Feature", "id": 980, "geometry": {"type": "Point", "coordinates": [118.510831472, 31.702629674]}, "properties": {"id": 980, "name": "马鞍山店", "chain_slug": "rt-mart", "category_slug": "supermarket", "address": "马鞍山市花山区湖北东路518号", "city": "马鞍山市"}}, {"type": "Feature", "id": 981, "geometry": {"type": "Point", "coordinates": [118.736470326, 32.059569439]}, "properties": {"id": 981, "name": "龙江店", "chain_slug": "rt-mart", "category_slug": "supermarket", "address": "南京市草场门大街95号", "city": "南京市"}}, {"type": "Feature", "id": 982, "geometry": {"type": "Point", "coordinates": [118.783352769, 32.054842207]}, "properties": {"id": 982, "name": "鼓楼店", "chain_slug": "rt-mart", "category_slug": "supermarket", "address": "南京市玄武区丹凤街街道39号", "city": "南京市"}}, {"type": "Feature", "id": 983, "geometry": {"type": "Point", "coordinates": [121.215196533, 31.019600216]}, "properties": {"id": 983, "name": "松江店", "chain_slug": "rt-mart", "category_slug": "supermarket", "address": "上海市松江区荣乐中路552-652号", "city": "上海市"}}, {"type": "Feature", "id": 984, "geometry": {"type": "Point", "coordinates": [118.87393884, 28.947377176]}, "properties": {"id": 984, "name": "衢州店", "chain_slug": "rt-mart", "category_slug": "supermarket", "address": "衢州市三衢路238号", "city": "衢州市"}}, {"type": "Feature", "id": 985, "geometry": {"type": "Point", "coordinates": [120.559470546, 31.309401135]}, "properties": {"id": 985, "name": "何山店", "chain_slug": "rt-mart", "category_slug": "supermarket", "address": "苏州市高新区滨河路1823号", "city": "苏州市"}}, {"type": "Feature", "id": 986, "geometry": {"type": "Point", "coordinates": [121.403592225, 31.109717526]}, "properties": {"id": 986, "name": "春申店", "chain_slug": "rt-mart", "category_slug": "supermarket", "address": "上海市闵行区春申路2801号", "city": "上海市"}}, {"type": "Feature", "id": 987, "geometry": {"type": "Point", "coordinates": [121.813090984, 29.898099249]}, "properties": {"id": 987, "name": "北仑店", "chain_slug": "rt-mart", "category_slug": "supermarket", "address": "宁波市北仑区新大路1229号西区201", "city": "宁波市"}}, {"type": "Feature", "id": 988, "geometry": {"type": "Point", "coordinates": [120.298323321, 31.909392302]}, "properties": {"id": 988, "name": "江阴店", "chain_slug": "rt-mart", "category_slug": "supermarket", "address": "江阴市延陵路528号", "city": "无锡市"}}, {"type": "Feature", "id": 989, "geometry": {"type": "Point", "coordinates": [121.575119155, 31.136472326]}, "properties": {"id": 989, "name": "康桥店", "chain_slug": "rt-mart", "category_slug": "supermarket", "address": "上海市南汇区康桥镇秀沿路1132-1180号", "city": "上海市"}}, {"type": "Feature", "id": 990, "geometry": {"type": "Point", "coordinates": [119.439957294, 32.205944838]}, "properties": {"id": 990, "name": "润州店", "chain_slug": "rt-mart", "category_slug": "supermarket", "address": "镇江市中山东路382号3楼会计课", "city": "镇江市"}}, {"type": "Feature", "id": 991, "geometry": {"type": "Point", "coordinates": [119.935702333, 30.054496754]}, "properties": {"id": 991, "name": "富阳店", "chain_slug": "rt-mart", "category_slug": "supermarket", "address": "富阳市富春街道孙权路209号", "city": "杭州市"}}, {"type": "Feature", "id": 992, "geometry": {"type": "Point", "coordinates": [120.642784983, 31.151175407]}, "properties": {"id": 992, "name": "吴江店", "chain_slug": "rt-mart", "category_slug": "supermarket", "address": "吴江市松陵镇笠泽路155号", "city": "苏州市"}}, {"type": "Feature", "id": 993, "geometry": {"type": "Point", "coordinates": [119.834743786, 31.371489065]}, "properties": {"id": 993, "name": "宜兴店", "chain_slug": "rt-mart", "category_slug": "supermarket", "address": "宜兴市宜城镇阳羡东路358号", "city": "无锡市"}}, {"type": "Feature", "id": 994, "geometry": {"type": "Point", "coordinates": [119.47528015, 31.408900903]}, "properties": {"id": 994, "name": "溧阳店", "chain_slug": "rt-mart", "category_slug": "supermarket", "address": "溧阳市燕山中路11号", "city": "常州市"}}, {"type": "Feature", "id": 995, "geometry": {"type": "Point", "coordinates": [120.634410303, 31.377535134]}, "properties": {"id": 995, "name": "相城店", "chain_slug": "rt-mart", "category_slug": "supermarket", "address": "苏州市相城区经济开发区华元路99号", "city": "苏州市"}}, {"type": "Feature", "id": 996, "geometry": {"type": "Point", "coordinates": [117.019588975, 32.649927983]}, "properties": {"id": 996, "name": "淮南店", "chain_slug": "rt-mart", "category_slug": "supermarket", "address": "淮南市国庆中路6号", "city": "淮南市"}}, {"type": "Feature", "id": 997, "geometry": {"type": "Point", "coordinates": [119.999557397, 32.125491784]}, "properties": {"id": 997, "name": "泰兴店", "chain_slug": "rt-mart", "category_slug": "supermarket", "address": "泰兴市中兴大道169号", "city": "泰州市"}}, {"type": "Feature", "id": 998, "geometry": {"type": "Point", "coordinates": [121.439993085, 30.907811925]}, "properties": {"id": 998, "name": "奉贤店", "chain_slug": "rt-mart", "category_slug": "supermarket", "address": "上海市奉贤区南桥镇南亭公路601号", "city": "上海市"}}, {"type": "Feature", "id": 999, "geometry": {"type": "Point", "coordinates": [119.456109737, 32.398031584]}, "properties": {"id": 999, "name": "广陵店", "chain_slug": "rt-mart", "category_slug": "supermarket", "address": "扬州市文昌中路168号", "city": "扬州市"}}, {"type": "Feature", "id": 1000, "geometry": {"type": "Point", "coordinates": [120.655841627, 27.775558283]}, "properties": {"id": 1000, "name": "瑞安店", "chain_slug": "rt-mart", "category_slug": "supermarket", "address": "瑞安市罗阳大道时代大厦大润发店", "city": "温州市"}}, {"type": "Feature", "id": 1001, "geometry": {"type": "Point", "coordinates": [120.876050085, 30.03590035]}, "properties": {"id": 1001, "name": "上虞店", "chain_slug": "rt-mart", "category_slug": "supermarket", "address": "上虞市百官街道城北新区凤鸣路与市民大道交汇处", "city": "绍兴市"}}, {"type": "Feature", "id": 1002, "geometry": {"type": "Point", "coordinates": [121.115980061, 31.446405502]}, "properties": {"id": 1002, "name": "太仓店", "chain_slug": "rt-mart", "category_slug": "supermarket", "address": "太仓市城厢镇太平南路18号", "city": "苏州市"}}, {"type": "Feature", "id": 1003, "geometry": {"type": "Point", "coordinates": [120.249295157, 29.70477684]}, "properties": {"id": 1003, "name": "诸暨店", "chain_slug": "rt-mart", "category_slug": "supermarket", "address": "诸暨市苎萝东路195号", "city": "绍兴市"}}, {"type": "Feature", "id": 1004, "geometry": {"type": "Point", "coordinates": [120.566200038, 32.381479804]}, "properties": {"id": 1004, "name": "如皋店", "chain_slug": "rt-mart", "category_slug": "supermarket", "address": "如皋市如城镇福寿路199号", "city": "南通市"}}, {"type": "Feature", "id": 1005, "geometry": {"type": "Point", "coordinates": [121.072017395, 32.082429614]}, "properties": {"id": 1005, "name": "通州店", "chain_slug": "rt-mart", "category_slug": "supermarket", "address": "南通市通州区金沙镇建设路18号", "city": "南通市"}}, {"type": "Feature", "id": 1006, "geometry": {"type": "Point", "coordinates": [120.654187375, 30.907906108]}, "properties": {"id": 1006, "name": "盛泽店", "chain_slug": "rt-mart", "category_slug": "supermarket", "address": "吴江市盛泽镇舜新中路381号", "city": "苏州市"}}, {"type": "Feature", "id": 1007, "geometry": {"type": "Point", "coordinates": [121.35720852, 31.254044769]}, "properties": {"id": 1007, "name": "曹安店", "chain_slug": "rt-mart", "category_slug": "supermarket", "address": "上海市嘉定区新郁路807号", "city": "上海市"}}, {"type": "Feature", "id": 1008, "geometry": {"type": "Point", "coordinates": [118.27966979, 33.959564507]}, "properties": {"id": 1008, "name": "宿迁店", "chain_slug": "rt-mart", "category_slug": "supermarket", "address": "宿迁市洪泽湖路98号", "city": "宿迁市"}}, {"type": "Feature", "id": 1009, "geometry": {"type": "Point", "coordinates": [119.18727032, 34.608864309]}, "properties": {"id": 1009, "name": "连云港店", "chain_slug": "rt-mart", "category_slug": "supermarket", "address": "连云港市新浦区郁州北路15号", "city": "连云港市"}}, {"type": "Feature", "id": 1010, "geometry": {"type": "Point", "coordinates": [121.011876314, 30.705210838]}, "properties": {"id": 1010, "name": "平湖店", "chain_slug": "rt-mart", "category_slug": "supermarket", "address": "平湖市当湖街道新华中路519号", "city": "嘉兴市"}}, {"type": "Feature", "id": 1011, "geometry": {"type": "Point", "coordinates": [121.410716598, 29.656337171]}, "properties": {"id": 1011, "name": "奉化店", "chain_slug": "rt-mart", "category_slug": "supermarket", "address": "奉化市南山路8号", "city": "宁波市"}}, {"type": "Feature", "id": 1012, "geometry": {"type": "Point", "coordinates": [119.943709509, 31.706493013]}, "properties": {"id": 1012, "name": "武进店", "chain_slug": "rt-mart", "category_slug": "supermarket", "address": "常州市武进区湖塘镇长虹中路与花园街东北角", "city": "常州市"}}, {"type": "Feature", "id": 1013, "geometry": {"type": "Point", "coordinates": [117.257651588, 31.870386276]}, "properties": {"id": 1013, "name": "清溪店", "chain_slug": "rt-mart", "category_slug": "supermarket", "address": "合肥市蜀山区合作化路与清溪路交叉口", "city": "合肥市"}}, {"type": "Feature", "id": 1014, "geometry": {"type": "Point", "coordinates": [121.239199191, 30.184543544]}, "properties": {"id": 1014, "name": "慈溪店", "chain_slug": "rt-mart", "category_slug": "supermarket", "address": "慈溪市古塘街道北二环中路550号", "city": "宁波市"}}, {"type": "Feature", "id": 1015, "geometry": {"type": "Point", "coordinates": [121.461592977, 31.268581185]}, "properties": {"id": 1015, "name": "平型关店", "chain_slug": "rt-mart", "category_slug": "supermarket", "address": "上海市闸北区俞泾港路11号", "city": "上海市"}}, {"type": "Feature", "id": 1016, "geometry": {"type": "Point", "coordinates": [119.783759853, 33.475577321]}, "properties": {"id": 1016, "name": "建湖店", "chain_slug": "rt-mart", "category_slug": "supermarket", "address": "盐城市建湖县向阳西路128号", "city": "盐城市"}}, {"type": "Feature", "id": 1017, "geometry": {"type": "Point", "coordinates": [119.684181927, 29.796296812]}, "properties": {"id": 1017, "name": "桐庐店", "chain_slug": "rt-mart", "category_slug": "supermarket", "address": "桐庐县桐君街道迎春南路359号", "city": "杭州市"}}, {"type": "Feature", "id": 1018, "geometry": {"type": "Point", "coordinates": [120.625415202, 31.820203708]}, "properties": {"id": 1018, "name": "塘桥店", "chain_slug": "rt-mart", "category_slug": "supermarket", "address": "张家港市塘桥镇南京路828号", "city": "苏州市"}}, {"type": "Feature", "id": 1019, "geometry": {"type": "Point", "coordinates": [119.294484476, 29.486852307]}, "properties": {"id": 1019, "name": "建德店", "chain_slug": "rt-mart", "category_slug": "supermarket", "address": "建德市严州大道988号", "city": "杭州市"}}, {"type": "Feature", "id": 1020, "geometry": {"type": "Point", "coordinates": [120.945425984, 30.520548027]}, "properties": {"id": 1020, "name": "海盐店", "chain_slug": "rt-mart", "category_slug": "supermarket", "address": "海盐县新桥北路与文昌东路交接西南侧", "city": "嘉兴市"}}, {"type": "Feature", "id": 1021, "geometry": {"type": "Point", "coordinates": [120.503394739, 31.370943924]}, "properties": {"id": 1021, "name": "浒关店", "chain_slug": "rt-mart", "category_slug": "supermarket", "address": "苏州高新区浒关镇文昌路301号", "city": "苏州市"}}, {"type": "Feature", "id": 1022, "geometry": {"type": "Point", "coordinates": [121.48760101, 31.151794014]}, "properties": {"id": 1022, "name": "三林店", "chain_slug": "rt-mart", "category_slug": "supermarket", "address": "上海市浦东新区长清路1200弄1号", "city": "上海市"}}, {"type": "Feature", "id": 1023, "geometry": {"type": "Point", "coordinates": [119.928744695, 31.779185188]}, "properties": {"id": 1023, "name": "怀德店", "chain_slug": "rt-mart", "category_slug": "supermarket", "address": "常州市怀德中路133号", "city": "常州市"}}, {"type": "Feature", "id": 1024, "geometry": {"type": "Point", "coordinates": [120.595652085, 31.266245314]}, "properties": {"id": 1024, "name": "宝带店", "chain_slug": "rt-mart", "category_slug": "supermarket", "address": "苏州市沧浪区宝带西路1155号2幢", "city": "苏州市"}}, {"type": "Feature", "id": 1025, "geometry": {"type": "Point", "coordinates": [121.25448796, 31.119352336]}, "properties": {"id": 1025, "name": "泗泾店", "chain_slug": "rt-mart", "category_slug": "supermarket", "address": "上海市松江区泗泾镇横港路18弄68号", "city": "上海市"}}, {"type": "Feature", "id": 1026, "geometry": {"type": "Point", "coordinates": [116.793456486, 33.972063968]}, "properties": {"id": 1026, "name": "相王广场店", "chain_slug": "rt-mart", "category_slug": "supermarket", "address": "淮北市古城路和相山路交汇处西北角", "city": "淮北市"}}, {"type": "Feature", "id": 1027, "geometry": {"type": "Point", "coordinates": [120.310948475, 32.853256291]}, "properties": {"id": 1027, "name": "东台店", "chain_slug": "rt-mart", "category_slug": "supermarket", "address": "东台市望海西路与红兰路交叉口西北角", "city": "盐城市"}}, {"type": "Feature", "id": 1028, "geometry": {"type": "Point", "coordinates": [118.379393113, 31.33819725]}, "properties": {"id": 1028, "name": "芜湖店", "chain_slug": "rt-mart", "category_slug": "supermarket", "address": "芜湖市北京中路10号", "city": "芜湖市"}}, {"type": "Feature", "id": 1029, "geometry": {"type": "Point", "coordinates": [119.839746074, 32.919300397]}, "properties": {"id": 1029, "name": "兴化店", "chain_slug": "rt-mart", "category_slug": "supermarket", "address": "兴化市英武南路168号", "city": "泰州市"}}, {"type": "Feature", "id": 1030, "geometry": {"type": "Point", "coordinates": [118.770860857, 34.113871945]}, "properties": {"id": 1030, "name": "沭阳店", "chain_slug": "rt-mart", "category_slug": "supermarket", "address": "沭阳县沭城镇上海南路与苏州西路交汇处", "city": "宿迁市"}}, {"type": "Feature", "id": 1031, "geometry": {"type": "Point", "coordinates": [121.288249233, 31.212491696]}, "properties": {"id": 1031, "name": "华漕店", "chain_slug": "rt-mart", "category_slug": "supermarket", "address": "上海市闵行区繁兴路399弄2号", "city": "上海市"}}, {"type": "Feature", "id": 1032, "geometry": {"type": "Point", "coordinates": [120.459381641, 33.205063095]}, "properties": {"id": 1032, "name": "大丰店", "chain_slug": "rt-mart", "category_slug": "supermarket", "address": "大丰市幸福东大街七号", "city": "盐城市"}}, {"type": "Feature", "id": 1033, "geometry": {"type": "Point", "coordinates": [117.218631292, 34.242733886]}, "properties": {"id": 1033, "name": "东关世茂店", "chain_slug": "rt-mart", "category_slug": "supermarket", "address": "徐州市三环东路与兵马俑路交汇西南角", "city": "徐州市"}}, {"type": "Feature", "id": 1034, "geometry": {"type": "Point", "coordinates": [119.165389494, 31.950507166]}, "properties": {"id": 1034, "name": "句容店", "chain_slug": "rt-mart", "category_slug": "supermarket", "address": "句容市华阳东路与北大街交汇处西南角", "city": "镇江市"}}, {"type": "Feature", "id": 1035, "geometry": {"type": "Point", "coordinates": [120.930225224, 30.839928781]}, "properties": {"id": 1035, "name": "嘉善店", "chain_slug": "rt-mart", "category_slug": "supermarket", "address": "嘉善县罗星街道施家南路318号", "city": "嘉兴市"}}, {"type": "Feature", "id": 1036, "geometry": {"type": "Point", "coordinates": [117.279923491, 31.895677641]}, "properties": {"id": 1036, "name": "庐阳店", "chain_slug": "rt-mart", "category_slug": "supermarket", "address": "合肥市阜阳北路和凤台路的西北角", "city": "合肥市"}}, {"type": "Feature", "id": 1037, "geometry": {"type": "Point", "coordinates": [115.800143102, 32.91928747]}, "properties": {"id": 1037, "name": "阜阳店", "chain_slug": "rt-mart", "category_slug": "supermarket", "address": "阜阳市颍河西路和中南大道交汇处", "city": "阜阳市"}}, {"type": "Feature", "id": 1038, "geometry": {"type": "Point", "coordinates": [120.18631542, 30.344790396]}, "properties": {"id": 1038, "name": "石桥店", "chain_slug": "rt-mart", "category_slug": "supermarket", "address": "杭州市下城区石桥路532号", "city": "杭州市"}}, {"type": "Feature", "id": 1039, "geometry": {"type": "Point", "coordinates": [119.827802661, 34.000198319]}, "properties": {"id": 1039, "name": "滨海店", "chain_slug": "rt-mart", "category_slug": "supermarket", "address": "滨海县人民中路62号", "city": "盐城市"}}, {"type": "Feature", "id": 1040, "geometry": {"type": "Point", "coordinates": [121.395408513, 30.170082639]}, "properties": {"id": 1040, "name": "观海卫店", "chain_slug": "rt-mart", "category_slug": "supermarket", "address": "慈溪市观附公路与观海卫路交叉口西北角", "city": "宁波市"}}, {"type": "Feature", "id": 1041, "geometry": {"type": "Point", "coordinates": [121.883115455, 29.465192732]}, "properties": {"id": 1041, "name": "象山店", "chain_slug": "rt-mart", "category_slug": "supermarket", "address": "宁波市象山县丹东街道丹南路570号", "city": "宁波市"}}, {"type": "Feature", "id": 1042, "geometry": {"type": "Point", "coordinates": [121.008384736, 31.26561182]}, "properties": {"id": 1042, "name": "千灯店", "chain_slug": "rt-mart", "category_slug": "supermarket", "address": "昆山市千灯镇尚书路8号", "city": "苏州市"}}, {"type": "Feature", "id": 1043, "geometry": {"type": "Point", "coordinates": [120.148623749, 33.350467707]}, "properties": {"id": 1043, "name": "盐南店", "chain_slug": "rt-mart", "category_slug": "supermarket", "address": "盐城市解放南路239号", "city": "盐城市"}}, {"type": "Feature", "id": 1044, "geometry": {"type": "Point", "coordinates": [117.307924154, 31.796436155]}, "properties": {"id": 1044, "name": "翡翠店", "chain_slug": "rt-mart", "category_slug": "supermarket", "address": "合肥经济技术开发区翡翠路与繁华大道交叉口西南角", "city": "合肥市"}}, {"type": "Feature", "id": 1045, "geometry": {"type": "Point", "coordinates": [116.980970563, 33.636460991]}, "properties": {"id": 1045, "name": "宿州店", "chain_slug": "rt-mart", "category_slug": "supermarket", "address": "宿州市东昌路与顺河路交汇处西南角", "city": "宿州市"}}, {"type": "Feature", "id": 1046, "geometry": {"type": "Point", "coordinates": [121.25606066, 28.634691486]}, "properties": {"id": 1046, "name": "黄岩店", "chain_slug": "rt-mart", "category_slug": "supermarket", "address": "台州市黄岩区洞天路160号", "city": "台州市"}}, {"type": "Feature", "id": 1047, "geometry": {"type": "Point", "coordinates": [120.835676145, 32.012136232]}, "properties": {"id": 1047, "name": "任港店", "chain_slug": "rt-mart", "category_slug": "supermarket", "address": "南通市任港路50号", "city": "南通市"}}, {"type": "Feature", "id": 1048, "geometry": {"type": "Point", "coordinates": [119.263371284, 33.773266453]}, "properties": {"id": 1048, "name": "涟水店", "chain_slug": "rt-mart", "category_slug": "supermarket", "address": "淮安市涟水县常青西路1号", "city": "淮安市"}}, {"type": "Feature", "id": 1049, "geometry": {"type": "Point", "coordinates": [117.050732859, 30.527313506]}, "properties": {"id": 1049, "name": "安庆店", "chain_slug": "rt-mart", "category_slug": "supermarket", "address": "安徽省安庆市大观区湖心中路与市府路交汇处汇峰广场", "city": "安庆市"}}, {"type": "Feature", "id": 1050, "geometry": {"type": "Point", "coordinates": [118.316289989, 29.711508183]}, "properties": {"id": 1050, "name": "黄山店", "chain_slug": "rt-mart", "category_slug": "supermarket", "address": "黄山市屯溪区跃进路新黄山商业步行街", "city": "黄山市"}}, {"type": "Feature", "id": 1051, "geometry": {"type": "Point", "coordinates": [120.031864106, 28.899326587]}, "properties": {"id": 1051, "name": "永康店", "chain_slug": "rt-mart", "category_slug": "supermarket", "address": "永康市九铃东路3117号", "city": "金华市"}}, {"type": "Feature", "id": 1052, "geometry": {"type": "Point", "coordinates": [119.812071203, 31.35173324]}, "properties": {"id": 1052, "name": "城南店", "chain_slug": "rt-mart", "category_slug": "supermarket", "address": "宜兴市宜城街道氿滨南路126号", "city": "无锡市"}}, {"type": "Feature", "id": 1053, "geometry": {"type": "Point", "coordinates": [120.118182105, 33.387377062]}, "properties": {"id": 1053, "name": "先峰岛店", "chain_slug": "rt-mart", "category_slug": "supermarket", "address": "盐城市建军西路北侧，小海路西侧", "city": "盐城市"}}, {"type": "Feature", "id": 1054, "geometry": {"type": "Point", "coordinates": [119.346847689, 34.72558045]}, "properties": {"id": 1054, "name": "中山西路店", "chain_slug": "rt-mart", "category_slug": "supermarket", "address": "连云港市连云区中山西路与平山路交汇处", "city": "连云港市"}}, {"type": "Feature", "id": 1055, "geometry": {"type": "Point", "coordinates": [119.874801294, 32.317798685]}, "properties": {"id": 1055, "name": "高港店", "chain_slug": "rt-mart", "category_slug": "supermarket", "address": "泰州市高港区金港中路1号", "city": "泰州市"}}, {"type": "Feature", "id": 1056, "geometry": {"type": "Point", "coordinates": [120.420588316, 31.948830677]}, "properties": {"id": 1056, "name": "金港店", "chain_slug": "rt-mart", "category_slug": "supermarket", "address": "张家港市金港镇黄泗浦西路1号", "city": "苏州市"}}, {"type": "Feature", "id": 1057, "geometry": {"type": "Point", "coordinates": [119.476392364, 32.20720846]}, "properties": {"id": 1057, "name": "京口店", "chain_slug": "rt-mart", "category_slug": "supermarket", "address": "镇江市京口区老山路与焦山路西北侧", "city": "镇江市"}}, {"type": "Feature", "id": 1058, "geometry": {"type": "Point", "coordinates": [121.361930456, 31.416662475]}, "properties": {"id": 1058, "name": "美兰湖店", "chain_slug": "rt-mart", "category_slug": "supermarket", "address": "上海市宝山区月罗路2380号1幢", "city": "上海市"}}, {"type": "Feature", "id": 1059, "geometry": {"type": "Point", "coordinates": [119.446130346, 32.420559263]}, "properties": {"id": 1059, "name": "维扬店", "chain_slug": "rt-mart", "category_slug": "supermarket", "address": "扬州市竹西路2号", "city": "扬州市"}}, {"type": "Feature", "id": 1060, "geometry": {"type": "Point", "coordinates": [117.308547656, 31.827671404]}, "properties": {"id": 1060, "name": "望江店", "chain_slug": "rt-mart", "category_slug": "supermarket", "address": "安徽省合肥市包河区望江东路与当涂路交口西北角", "city": "合肥市"}}, {"type": "Feature", "id": 1061, "geometry": {"type": "Point", "coordinates": [120.595976746, 31.307803315]}, "properties": {"id": 1061, "name": "广济店", "chain_slug": "rt-mart", "category_slug": "supermarket", "address": "苏州市金阊区广济南路19号", "city": "苏州市"}}, {"type": "Feature", "id": 1062, "geometry": {"type": "Point", "coordinates": [121.156075322, 31.289932418]}, "properties": {"id": 1062, "name": "安亭店", "chain_slug": "rt-mart", "category_slug": "supermarket", "address": "上海市嘉定区墨玉南路1099号", "city": "上海市"}}, {"type": "Feature", "id": 1063, "geometry": {"type": "Point", "coordinates": [117.684179896, 32.520041517]}, "properties": {"id": 1063, "name": "定远店", "chain_slug": "rt-mart", "category_slug": "supermarket", "address": "滁州市定远县鲁肃大道与黎明路交叉口东南角", "city": "滁州市"}}, {"type": "Feature", "id": 1064, "geometry": {"type": "Point", "coordinates": [119.419059024, 30.878285668]}, "properties": {"id": 1064, "name": "广德店", "chain_slug": "rt-mart", "category_slug": "supermarket", "address": "安徽省广德市万桂山路与玮二路西南角", "city": "宣城市"}}, {"type": "Feature", "id": 1065, "geometry": {"type": "Point", "coordinates": [118.326385931, 30.922391819]}, "properties": {"id": 1065, "name": "南陵店", "chain_slug": "rt-mart", "category_slug": "supermarket", "address": "南陵县籍山镇文庙路与利民路东北", "city": "芜湖市"}}, {"type": "Feature", "id": 1066, "geometry": {"type": "Point", "coordinates": [118.215724865, 33.460554635]}, "properties": {"id": 1066, "name": "泗洪店", "chain_slug": "rt-mart", "category_slug": "supermarket", "address": "泗洪县泗州大道与青阳路交汇处（富源广场）", "city": "宿迁市"}}, {"type": "Feature", "id": 1067, "geometry": {"type": "Point", "coordinates": [117.481954572, 30.651731379]}, "properties": {"id": 1067, "name": "池州店", "chain_slug": "rt-mart", "category_slug": "supermarket", "address": "池州市贵池区长江中路与翠微路交叉口西北角", "city": "池州市"}}, {"type": "Feature", "id": 1068, "geometry": {"type": "Point", "coordinates": [120.289147194, 31.605819845]}, "properties": {"id": 1068, "name": "凤宾路店", "chain_slug": "rt-mart", "category_slug": "supermarket", "address": "无锡市北塘区凤宾路与民丰路交汇处", "city": "无锡市"}}, {"type": "Feature", "id": 1069, "geometry": {"type": "Point", "coordinates": [117.386855808, 32.947846999]}, "properties": {"id": 1069, "name": "明珠店", "chain_slug": "rt-mart", "category_slug": "supermarket", "address": "蚌埠市解放路与凤阳东路交叉口西北角", "city": "蚌埠市"}}, {"type": "Feature", "id": 1070, "geometry": {"type": "Point", "coordinates": [119.653002672, 29.073952521]}, "properties": {"id": 1070, "name": "金华店", "chain_slug": "rt-mart", "category_slug": "supermarket", "address": "浙江省金华市八一南街1159？（印象城）", "city": "金华市"}}, {"type": "Feature", "id": 1071, "geometry": {"type": "Point", "coordinates": [118.41611031, 31.542184644]}, "properties": {"id": 1071, "name": "当涂店", "chain_slug": "rt-mart", "category_slug": "supermarket", "address": "马鞍山市当涂县青莲路与振兴路交叉口西北角", "city": "马鞍山市"}}, {"type": "Feature", "id": 1072, "geometry": {"type": "Point", "coordinates": [121.048930248, 31.384798575]}, "properties": {"id": 1072, "name": "前进店", "chain_slug": "rt-mart", "category_slug": "supermarket", "address": "昆山市开发区前进东路205号", "city": "苏州市"}}, {"type": "Feature", "id": 1073, "geometry": {"type": "Point", "coordinates": [119.668784294, 32.160895353]}, "properties": {"id": 1073, "name": "大港店", "chain_slug": "rt-mart", "category_slug": "supermarket", "address": "镇江市新区大港扬子江路123号", "city": "镇江市"}}, {"type": "Feature", "id": 1074, "geometry": {"type": "Point", "coordinates": [121.816562744, 30.911019134]}, "properties": {"id": 1074, "name": "泥城店", "chain_slug": "rt-mart", "category_slug": "supermarket", "address": "上海市浦东新区南芦公路1757号", "city": "上海市"}}, {"type": "Feature", "id": 1075, "geometry": {"type": "Point", "coordinates": [118.306902551, 32.295959379]}, "properties": {"id": 1075, "name": "滁州店", "chain_slug": "rt-mart", "category_slug": "supermarket", "address": "滁州市琅琊区丰乐大道475号", "city": "滁州市"}}, {"type": "Feature", "id": 1076, "geometry": {"type": "Point", "coordinates": [119.035892817, 31.639080679]}, "properties": {"id": 1076, "name": "溧水店", "chain_slug": "rt-mart", "category_slug": "supermarket", "address": "溧水县永阳镇天生桥大道与致远路交汇处", "city": "南京市"}}, {"type": "Feature", "id": 1077, "geometry": {"type": "Point", "coordinates": [119.028517461, 33.613032361]}, "properties": {"id": 1077, "name": "淮阴店", "chain_slug": "rt-mart", "category_slug": "supermarket", "address": "淮安市承德北路与黄河路交汇处东北角", "city": "淮安市"}}, {"type": "Feature", "id": 1078, "geometry": {"type": "Point", "coordinates": [118.524446978, 32.996262373]}, "properties": {"id": 1078, "name": "盱眙店", "chain_slug": "rt-mart", "category_slug": "supermarket", "address": "淮安市盱眙县都梁大道与东湖南路交汇处", "city": "淮安市"}}, {"type": "Feature", "id": 1079, "geometry": {"type": "Point", "coordinates": [118.201750764, 31.086431155]}, "properties": {"id": 1079, "name": "繁昌店", "chain_slug": "rt-mart", "category_slug": "supermarket", "address": "芜湖市繁昌县繁阳镇迎春东路与环城东路交汇处西北角", "city": "芜湖市"}}, {"type": "Feature", "id": 1080, "geometry": {"type": "Point", "coordinates": [116.795620561, 33.941400081]}, "properties": {"id": 1080, "name": "相山店", "chain_slug": "rt-mart", "category_slug": "supermarket", "address": "淮北市相山路与南黎路交口东北角", "city": "淮北市"}}, {"type": "Feature", "id": 1081, "geometry": {"type": "Point", "coordinates": [118.739500298, 30.944802203]}, "properties": {"id": 1081, "name": "宣州店", "chain_slug": "rt-mart", "category_slug": "supermarket", "address": "安徽省宣城市宣州区梅溪路与昭亭南路交汇处西南角", "city": "宣城市"}}, {"type": "Feature", "id": 1082, "geometry": {"type": "Point", "coordinates": [120.261778872, 30.173282416]}, "properties": {"id": 1082, "name": "市心店", "chain_slug": "rt-mart", "category_slug": "supermarket", "address": "萧山区北干街道市心中路123-A号", "city": "杭州市"}}, {"type": "Feature", "id": 1083, "geometry": {"type": "Point", "coordinates": [117.828778643, 30.950941945]}, "properties": {"id": 1083, "name": "铜陵店", "chain_slug": "rt-mart", "category_slug": "supermarket", "address": "铜陵市石城大道与翠湖一路交汇处东北角", "city": "铜陵市"}}, {"type": "Feature", "id": 1084, "geometry": {"type": "Point", "coordinates": [120.641499738, 31.13269139]}, "properties": {"id": 1084, "name": "吴江南店", "chain_slug": "rt-mart", "category_slug": "supermarket", "address": "吴江市吴江中山南路1088号", "city": "苏州市"}}, {"type": "Feature", "id": 1085, "geometry": {"type": "Point", "coordinates": [119.974391419, 31.748340966]}, "properties": {"id": 1085, "name": "丽华店", "chain_slug": "rt-mart", "category_slug": "supermarket", "address": "常州市天宁区天鹅湖花园16幢", "city": "常州市"}}, {"type": "Feature", "id": 1086, "geometry": {"type": "Point", "coordinates": [119.069281265, 33.589589784]}, "properties": {"id": 1086, "name": "公园店", "chain_slug": "rt-mart", "category_slug": "supermarket", "address": "淮安市南昌路与威海路交汇处东北角", "city": "淮安市"}}, {"type": "Feature", "id": 1087, "geometry": {"type": "Point", "coordinates": [118.853979007, 33.297435555]}, "properties": {"id": 1087, "name": "洪泽店", "chain_slug": "rt-mart", "category_slug": "supermarket", "address": "淮安市洪泽县北京路86号", "city": "淮安市"}}, {"type": "Feature", "id": 1088, "geometry": {"type": "Point", "coordinates": [120.253594281, 33.776271996]}, "properties": {"id": 1088, "name": "射阳店", "chain_slug": "rt-mart", "category_slug": "supermarket", "address": "射阳县红旗路与健康路交界口", "city": "盐城市"}}, {"type": "Feature", "id": 1089, "geometry": {"type": "Point", "coordinates": [120.856988182, 32.051604674]}, "properties": {"id": 1089, "name": "北大街店", "chain_slug": "rt-mart", "category_slug": "supermarket", "address": "南通市港闸区北大街108号", "city": "南通市"}}, {"type": "Feature", "id": 1090, "geometry": {"type": "Point", "coordinates": [119.921035005, 28.464698244]}, "properties": {"id": 1090, "name": "丽水店", "chain_slug": "rt-mart", "category_slug": "supermarket", "address": "丽水市莲都区宇雷北路185号", "city": "丽水市"}}, {"type": "Feature", "id": 1091, "geometry": {"type": "Point", "coordinates": [120.255981036, 32.007635588]}, "properties": {"id": 1091, "name": "靖江店", "chain_slug": "rt-mart", "category_slug": "supermarket", "address": "江苏省靖江市车站路与工农路交汇处", "city": "泰州市"}}, {"type": "Feature", "id": 1092, "geometry": {"type": "Point", "coordinates": [118.688880343, 33.72876234]}, "properties": {"id": 1092, "name": "泗阳店", "chain_slug": "rt-mart", "category_slug": "supermarket", "address": "泗阳县淮海中路与桃源北路交叉口", "city": "宿迁市"}}, {"type": "Feature", "id": 1093, "geometry": {"type": "Point", "coordinates": [118.638292244, 32.061056372]}, "properties": {"id": 1093, "name": "浦口店", "chain_slug": "rt-mart", "category_slug": "supermarket", "address": "江苏省南京市浦口区江浦街道新浦路126号", "city": "南京市"}}, {"type": "Feature", "id": 1094, "geometry": {"type": "Point", "coordinates": [120.623225337, 30.078789884]}, "properties": {"id": 1094, "name": "袍江店", "chain_slug": "rt-mart", "category_slug": "supermarket", "address": "绍兴袍江新区世纪街与环一直路交汇处东北角", "city": "绍兴市"}}, {"type": "Feature", "id": 1095, "geometry": {"type": "Point", "coordinates": [119.567196705, 32.408096993]}, "properties": {"id": 1095, "name": "江都店", "chain_slug": "rt-mart", "category_slug": "supermarket", "address": "扬州市江都区文昌东路与广州路交叉口东北角", "city": "扬州市"}}, {"type": "Feature", "id": 1096, "geometry": {"type": "Point", "coordinates": [117.371715971, 32.929674094]}, "properties": {"id": 1096, "name": "文化广场店", "chain_slug": "rt-mart", "category_slug": "supermarket", "address": "蚌埠市兴业街555号宝龙城市广场", "city": "蚌埠市"}}, {"type": "Feature", "id": 1097, "geometry": {"type": "Point", "coordinates": [120.542314849, 31.315183435]}, "properties": {"id": 1097, "name": "长江路店", "chain_slug": "rt-mart", "category_slug": "supermarket", "address": "苏州市高新区长江路556号(港龙城B幢)", "city": "苏州市"}}, {"type": "Feature", "id": 1098, "geometry": {"type": "Point", "coordinates": [115.631410171, 33.168412374]}, "properties": {"id": 1098, "name": "太和店", "chain_slug": "rt-mart", "category_slug": "supermarket", "address": "阜阳市太和县长征路中段东侧", "city": "阜阳市"}}, {"type": "Feature", "id": 1099, "geometry": {"type": "Point", "coordinates": [117.187334669, 34.201263601]}, "properties": {"id": 1099, "name": "南关欣欣店", "chain_slug": "rt-mart", "category_slug": "supermarket", "address": "徐州市泉州区北京路与欣欣路交汇处东北角", "city": "徐州市"}}, {"type": "Feature", "id": 1100, "geometry": {"type": "Point", "coordinates": [120.233373053, 31.608932987]}, "properties": {"id": 1100, "name": "盛岸西路店", "chain_slug": "rt-mart", "category_slug": "supermarket", "address": "无锡市北塘区盛岸西路与新兴路交汇处东南角", "city": "无锡市"}}, {"type": "Feature", "id": 1101, "geometry": {"type": "Point", "coordinates": [121.30104255, 31.294015231]}, "properties": {"id": 1101, "name": "南翔店", "chain_slug": "rt-mart", "category_slug": "supermarket", "address": "上海市嘉定区沪宜公路1000号", "city": "上海市"}}, {"type": "Feature", "id": 1102, "geometry": {"type": "Point", "coordinates": [119.138298925, 33.530990565]}, "properties": {"id": 1102, "name": "淮安店", "chain_slug": "rt-mart", "category_slug": "supermarket", "address": "淮安市楚州区翔宇大道与北门大街交汇处(东南角)", "city": "淮安市"}}, {"type": "Feature", "id": 1103, "geometry": {"type": "Point", "coordinates": [120.497205805, 30.086685586]}, "properties": {"id": 1103, "name": "柯桥店", "chain_slug": "rt-mart", "category_slug": "supermarket", "address": "绍兴市柯桥区兴越路与湖西路交汇处东南角", "city": "绍兴市"}}, {"type": "Feature", "id": 1104, "geometry": {"type": "Point", "coordinates": [121.245793413, 28.120161234]}, "properties": {"id": 1104, "name": "玉环店", "chain_slug": "rt-mart", "category_slug": "supermarket", "address": "玉环市榴岛大道与珠港大道交叉口", "city": "台州市"}}, {"type": "Feature", "id": 1105, "geometry": {"type": "Point", "coordinates": [120.530431925, 31.259787194]}, "properties": {"id": 1105, "name": "木渎店", "chain_slug": "rt-mart", "category_slug": "supermarket", "address": "苏州市吴中区木渎镇中山东路88号", "city": "苏州市"}}, {"type": "Feature", "id": 1106, "geometry": {"type": "Point", "coordinates": [118.627715606, 28.749129598]}, "properties": {"id": 1106, "name": "江山店", "chain_slug": "rt-mart", "category_slug": "supermarket", "address": "浙江省江山市双塔街道城北广场98号", "city": "衢州市"}}, {"type": "Feature", "id": 1107, "geometry": {"type": "Point", "coordinates": [115.833965005, 32.857374161]}, "properties": {"id": 1107, "name": "临泉店", "chain_slug": "rt-mart", "category_slug": "supermarket", "address": "安徽省阜阳市临泉县解放路与纬六路交汇处西北角", "city": "阜阳市"}}, {"type": "Feature", "id": 1108, "geometry": {"type": "Point", "coordinates": [118.593104232, 31.146442882]}, "properties": {"id": 1108, "name": "湾沚店", "chain_slug": "rt-mart", "category_slug": "supermarket", "address": "安徽省芜湖市湾沚区世纪大道与迎宾大道交汇处东北角", "city": "芜湖市"}}, {"type": "Feature", "id": 1109, "geometry": {"type": "Point", "coordinates": [117.201571069, 32.971256607]}, "properties": {"id": 1109, "name": "怀远店", "chain_slug": "rt-mart", "category_slug": "supermarket", "address": "安徽省蚌埠市怀远县307省道及三桥路西南角处", "city": "蚌埠市"}}, {"type": "Feature", "id": 1110, "geometry": {"type": "Point", "coordinates": [120.704854913, 27.827146348]}, "properties": {"id": 1110, "name": "塘下店", "chain_slug": "rt-mart", "category_slug": "supermarket", "address": "瑞安市塘下镇中心大道与瑞安大道西南角紫荆假日广场", "city": "温州市"}}, {"type": "Feature", "id": 1111, "geometry": {"type": "Point", "coordinates": [119.914307764, 32.463538282]}, "properties": {"id": 1111, "name": "梅兰东路店", "chain_slug": "rt-mart", "category_slug": "supermarket", "address": "泰州市海陵区梅兰东路299号", "city": "泰州市"}}, {"type": "Feature", "id": 1112, "geometry": {"type": "Point", "coordinates": [121.659216192, 31.801777991]}, "properties": {"id": 1112, "name": "启东店", "chain_slug": "rt-mart", "category_slug": "supermarket", "address": "启东市民胜中路与灵秀中路交汇处", "city": "南通市"}}, {"type": "Feature", "id": 1113, "geometry": {"type": "Point", "coordinates": [120.043593653, 31.721578859]}, "properties": {"id": 1113, "name": "遥观店", "chain_slug": "rt-mart", "category_slug": "supermarket", "address": "常州市武进区遥观镇今创路与中吴大道交汇处西南角", "city": "常州市"}}, {"type": "Feature", "id": 1114, "geometry": {"type": "Point", "coordinates": [117.970156189, 34.328911895]}, "properties": {"id": 1114, "name": "邳州店", "chain_slug": "rt-mart", "category_slug": "supermarket", "address": "邳州市瑞兴路与闽江路交界处", "city": "徐州市"}}, {"type": "Feature", "id": 1115, "geometry": {"type": "Point", "coordinates": [118.011771344, 32.777840421]}, "properties": {"id": 1115, "name": "明光店", "chain_slug": "rt-mart", "category_slug": "supermarket", "address": "安徽省明光市明珠路与池河大道交叉口东北角", "city": "滁州市"}}, {"type": "Feature", "id": 1116, "geometry": {"type": "Point", "coordinates": [120.312657019, 31.591164242]}, "properties": {"id": 1116, "name": "广瑞路店", "chain_slug": "rt-mart", "category_slug": "supermarket", "address": "无锡市锡沪中路55号", "city": "无锡市"}}, {"type": "Feature", "id": 1117, "geometry": {"type": "Point", "coordinates": [119.16486369, 29.025191477]}, "properties": {"id": 1117, "name": "龙游店", "chain_slug": "rt-mart", "category_slug": "supermarket", "address": "浙江衢州龙游县老火车站北侧人民广场", "city": "衢州市"}}, {"type": "Feature", "id": 1118, "geometry": {"type": "Point", "coordinates": [120.927039, 32.001004745]}, "properties": {"id": 1118, "name": "观音山店", "chain_slug": "rt-mart", "category_slug": "supermarket", "address": "南通市崇川区青年中路200号", "city": "南通市"}}, {"type": "Feature", "id": 1119, "geometry": {"type": "Point", "coordinates": [120.465230504, 31.606906712]}, "properties": {"id": 1119, "name": "锡山店", "chain_slug": "rt-mart", "category_slug": "supermarket", "address": "江苏省无锡市锡山区锡沪路南、润锡路东", "city": "无锡市"}}, {"type": "Feature", "id": 1120, "geometry": {"type": "Point", "coordinates": [116.49678644, 31.758489727]}, "properties": {"id": 1120, "name": "六安店", "chain_slug": "rt-mart", "category_slug": "supermarket", "address": "安徽省六安市金安区中市街道人民西路紫御府大发广场", "city": "六安市"}}, {"type": "Feature", "id": 1121, "geometry": {"type": "Point", "coordinates": [117.859518834, 30.633122213]}, "properties": {"id": 1121, "name": "青阳店", "chain_slug": "rt-mart", "category_slug": "supermarket", "address": "安徽省池州市青阳县富阳南路与九子大道交汇处西南角", "city": "池州市"}}, {"type": "Feature", "id": 1122, "geometry": {"type": "Point", "coordinates": [120.94760986, 31.92225303]}, "properties": {"id": 1122, "name": "星湖店", "chain_slug": "rt-mart", "category_slug": "supermarket", "address": "江苏省南通市经济技术开发区新东路101号", "city": "南通市"}}, {"type": "Feature", "id": 1123, "geometry": {"type": "Point", "coordinates": [118.483887061, 31.686092489]}, "properties": {"id": 1123, "name": "雨山店", "chain_slug": "rt-mart", "category_slug": "supermarket", "address": "马鞍山市雨山区湖南路与红旗路交叉口东南角", "city": "马鞍山市"}}, {"type": "Feature", "id": 1124, "geometry": {"type": "Point", "coordinates": [117.158924851, 31.725956596]}, "properties": {"id": 1124, "name": "金寨南路店", "chain_slug": "rt-mart", "category_slug": "supermarket", "address": "安徽省合肥市肥西县青年路和金寨南路交叉口西北角", "city": "合肥市"}}, {"type": "Feature", "id": 1125, "geometry": {"type": "Point", "coordinates": [120.154784166, 29.698007036]}, "properties": {"id": 1125, "name": "大唐店", "chain_slug": "rt-mart", "category_slug": "supermarket", "address": "浙江省诸暨市大唐镇永新路1号", "city": "绍兴市"}}, {"type": "Feature", "id": 1126, "geometry": {"type": "Point", "coordinates": [118.984553155, 30.626641519]}, "properties": {"id": 1126, "name": "宁国店", "chain_slug": "rt-mart", "category_slug": "supermarket", "address": "安徽省宁国市宁阳东路与和平路西交汇处西南角", "city": "宣城市"}}, {"type": "Feature", "id": 1127, "geometry": {"type": "Point", "coordinates": [120.131109368, 32.505695002]}, "properties": {"id": 1127, "name": "姜堰店", "chain_slug": "rt-mart", "category_slug": "supermarket", "address": "泰州市姜堰区罗塘街道三水新都会26幢大润发", "city": "泰州市"}}, {"type": "Feature", "id": 1128, "geometry": {"type": "Point", "coordinates": [119.441437435, 32.369797192]}, "properties": {"id": 1128, "name": "开发东路店", "chain_slug": "rt-mart", "category_slug": "supermarket", "address": "扬州市广陵区渡江南路128号", "city": "扬州市"}}, {"type": "Feature", "id": 1129, "geometry": {"type": "Point", "coordinates": [119.779433239, 33.852886663]}, "properties": {"id": 1129, "name": "阜宁店", "chain_slug": "rt-mart", "category_slug": "supermarket", "address": "阜宁县阜城崔湾村四组（香港路与上海路交汇处东南角）", "city": "盐城市"}}, {"type": "Feature", "id": 1130, "geometry": {"type": "Point", "coordinates": [120.809166941, 27.927195189]}, "properties": {"id": 1130, "name": "龙湾店", "chain_slug": "rt-mart", "category_slug": "supermarket", "address": "温州龙湾区永中街道永中西路799", "city": "温州市"}}, {"type": "Feature", "id": 1131, "geometry": {"type": "Point", "coordinates": [117.285351298, 31.744249946]}, "properties": {"id": 1131, "name": "包河店", "chain_slug": "rt-mart", "category_slug": "supermarket", "address": "合肥市包河区庐州大道与紫云路交汇处东北角", "city": "合肥市"}}, {"type": "Feature", "id": 1132, "geometry": {"type": "Point", "coordinates": [119.366067857, 32.378340612]}, "properties": {"id": 1132, "name": "蒋王店", "chain_slug": "rt-mart", "category_slug": "supermarket", "address": "扬州市博物馆路东侧、云顶街北侧", "city": "扬州市"}}, {"type": "Feature", "id": 1133, "geometry": {"type": "Point", "coordinates": [121.350440854, 28.57192095]}, "properties": {"id": 1133, "name": "路桥店", "chain_slug": "rt-mart", "category_slug": "supermarket", "address": "浙江省台州市路桥区银安街与银苑路东南角处", "city": "台州市"}}, {"type": "Feature", "id": 1134, "geometry": {"type": "Point", "coordinates": [120.30102661, 30.397221807]}, "properties": {"id": 1134, "name": "临平店", "chain_slug": "rt-mart", "category_slug": "supermarket", "address": "杭州市余杭区南苑街道迎宾路501号余之城3号楼201室", "city": "杭州市"}}, {"type": "Feature", "id": 1135, "geometry": {"type": "Point", "coordinates": [120.627329534, 31.241058311]}, "properties": {"id": 1135, "name": "吴中店", "chain_slug": "rt-mart", "category_slug": "supermarket", "address": "江苏省苏州市吴中区东南路90号吴风生活广场", "city": "苏州市"}}, {"type": "Feature", "id": 1136, "geometry": {"type": "Point", "coordinates": [120.86488689, 31.71860452]}, "properties": {"id": 1136, "name": "梅李镇店", "chain_slug": "rt-mart", "category_slug": "supermarket", "address": "常熟市梅李镇将军路128号润泰花园9幢", "city": "苏州市"}}, {"type": "Feature", "id": 1137, "geometry": {"type": "Point", "coordinates": [119.019781504, 33.601088314]}, "properties": {"id": 1137, "name": "华信Mall店", "chain_slug": "rt-mart", "category_slug": "supermarket", "address": "淮安市清江浦区淮海北路49号负一层B1-01", "city": "淮安市"}}, {"type": "Feature", "id": 1138, "geometry": {"type": "Point", "coordinates": [118.373973347, 33.775520167]}, "properties": {"id": 1138, "name": "洋河新区店", "chain_slug": "rt-mart", "category_slug": "supermarket", "address": "宿迁市洋河新区酒醴路与发展大道交叉口南140米", "city": "宿迁市"}}, {"type": "Feature", "id": 1139, "geometry": {"type": "Point", "coordinates": [121.072150161, 31.286874233]}, "properties": {"id": 1139, "name": "花桥店", "chain_slug": "rt-mart", "category_slug": "supermarket", "address": "江苏省昆山市花桥镇西环路528号", "city": "苏州市"}}, {"type": "Feature", "id": 1140, "geometry": {"type": "Point", "coordinates": [118.786725943, 32.303148334]}, "properties": {"id": 1140, "name": "龙池店", "chain_slug": "rt-mart", "category_slug": "supermarket", "address": "江苏省南京市六合区龙池街道浦六路6号", "city": "南京市"}}, {"type": "Feature", "id": 1141, "geometry": {"type": "Point", "coordinates": [118.499834226, 31.661249764]}, "properties": {"id": 1141, "name": "马鞍山万达广场店", "chain_slug": "rt-mart", "category_slug": "supermarket", "address": "马鞍山市雨山区太白大道3200号马鞍山雨山万达广场B1", "city": "马鞍山市"}}, {"type": "Feature", "id": 1142, "geometry": {"type": "Point", "coordinates": [121.391397617, 31.242232462]}, "properties": {"id": 1142, "name": "大渡河店", "chain_slug": "rt-mart", "category_slug": "supermarket", "address": "上海市普陀区梅岭北路1098弄1号地下二层LG227、LG228", "city": "上海市"}}, {"type": "Feature", "id": 1143, "geometry": {"type": "Point", "coordinates": [117.178742573, 34.27778814]}, "properties": {"id": 1143, "name": "金地店", "chain_slug": "rt-mart", "category_slug": "supermarket", "address": "徐州市鼓楼区中山北路 6 号", "city": "徐州市"}}, {"type": "Feature", "id": 1144, "geometry": {"type": "Point", "coordinates": [115.607390836, 33.156689098]}, "properties": {"id": 1144, "name": "翰林广场店", "chain_slug": "rt-mart", "category_slug": "supermarket", "address": "阜阳市太和县城关镇复兴路西侧与解放西路北侧国建翰林", "city": "阜阳市"}}, {"type": "Feature", "id": 1145, "geometry": {"type": "Point", "coordinates": [115.783307996, 33.857672901]}, "properties": {"id": 1145, "name": "金桥店", "chain_slug": "rt-mart", "category_slug": "supermarket", "address": "安徽省亳州市谯城区光明东路金桥大厦商场202-203号", "city": "亳州市"}}, {"type": "Feature", "id": 1146, "geometry": {"type": "Point", "coordinates": [121.917397876, 31.724021391]}, "properties": {"id": 1146, "name": "R-启东威尼斯店", "chain_slug": "rt-mart", "category_slug": "supermarket", "address": "启东市恒大海上威尼斯商业街703", "city": "南通市"}}, {"type": "Feature", "id": 1147, "geometry": {"type": "Point", "coordinates": [117.920404024, 31.305907727]}, "properties": {"id": 1147, "name": "无为店", "chain_slug": "rt-mart", "category_slug": "supermarket", "address": "安徽省芜湖市无为市无城镇锁埂路东侧晏公花园北侧1号", "city": "芜湖市"}}, {"type": "Feature", "id": 1148, "geometry": {"type": "Point", "coordinates": [114.289277812, 30.581953901]}, "properties": {"id": 1148, "name": "江汉店(HD)", "chain_slug": "rt-mart", "category_slug": "supermarket", "address": "武汉市江汉区江汉路257号", "city": "武汉市"}}, {"type": "Feature", "id": 1149, "geometry": {"type": "Point", "coordinates": [112.25737025, 30.317228725]}, "properties": {"id": 1149, "name": "荆州店(HD)", "chain_slug": "rt-mart", "category_slug": "supermarket", "address": "荆州市沙市区江津中路204号", "city": "荆州市"}}, {"type": "Feature", "id": 1150, "geometry": {"type": "Point", "coordinates": [114.249418594, 30.640212185]}, "properties": {"id": 1150, "name": "姑嫂树店(HD)", "chain_slug": "rt-mart", "category_slug": "supermarket", "address": "武汉市江汉区兴业路与姑嫂树交汇(南国北都广场)", "city": "武汉市"}}, {"type": "Feature", "id": 1151, "geometry": {"type": "Point", "coordinates": [113.918474435, 30.917116045]}, "properties": {"id": 1151, "name": "孝感店(HD)", "chain_slug": "rt-mart", "category_slug": "supermarket", "address": "湖北省孝感市槐荫大道193号", "city": "孝感市"}}, {"type": "Feature", "id": 1152, "geometry": {"type": "Point", "coordinates": [113.367086425, 31.72276957]}, "properties": {"id": 1152, "name": "随州店(HD)", "chain_slug": "rt-mart", "category_slug": "supermarket", "address": "随州市青年路与烈山大道交汇处", "city": "随州市"}}, {"type": "Feature", "id": 1153, "geometry": {"type": "Point", "coordinates": [113.151534652, 30.644360547]}, "properties": {"id": 1153, "name": "天门店(HD)", "chain_slug": "rt-mart", "category_slug": "supermarket", "address": "天门市钟惺大道88号", "city": "天门市"}}, {"type": "Feature", "id": 1154, "geometry": {"type": "Point", "coordinates": [112.218783265, 30.342571097]}, "properties": {"id": 1154, "name": "荆沙店(HD)", "chain_slug": "rt-mart", "category_slug": "supermarket", "address": "湖北省荆州市荆州区北京西路508号（万达广场内）", "city": "荆州市"}}, {"type": "Feature", "id": 1155, "geometry": {"type": "Point", "coordinates": [114.404866581, 30.492194729]}, "properties": {"id": 1155, "name": "保利店(HD)", "chain_slug": "rt-mart", "category_slug": "supermarket", "address": "武汉东湖新技术开发区关山大道332号武汉保利广场B1", "city": "武汉市"}}, {"type": "Feature", "id": 1156, "geometry": {"type": "Point", "coordinates": [115.783550233, 28.709042085]}, "properties": {"id": 1156, "name": "莲塘店(HD)", "chain_slug": "rt-mart", "category_slug": "supermarket", "address": "南昌县迎宾大道3699号107栋", "city": "南昌市"}}, {"type": "Feature", "id": 1157, "geometry": {"type": "Point", "coordinates": [115.973038291, 29.707673194]}, "properties": {"id": 1157, "name": "九江店(HD)", "chain_slug": "rt-mart", "category_slug": "supermarket", "address": "江西省九江市九瑞大道53号", "city": "九江市"}}, {"type": "Feature", "id": 1158, "geometry": {"type": "Point", "coordinates": [115.944812357, 28.689171441]}, "properties": {"id": 1158, "name": "五湖店(HD)", "chain_slug": "rt-mart", "category_slug": "supermarket", "address": "南昌市高新区青山湖大道199号", "city": "南昌市"}}, {"type": "Feature", "id": 1159, "geometry": {"type": "Point", "coordinates": [116.35904409, 27.98113217]}, "properties": {"id": 1159, "name": "金巢店(HD)", "chain_slug": "rt-mart", "category_slug": "supermarket", "address": "江西省抚州市青云峰路14号凤凰城三期商业C区101房、20", "city": "抚州市"}}, {"type": "Feature", "id": 1160, "geometry": {"type": "Point", "coordinates": [116.010278556, 29.706092028]}, "properties": {"id": 1160, "name": "浔南店(HD)", "chain_slug": "rt-mart", "category_slug": "supermarket", "address": "江西省九江市浔南大道与金凤路交汇处", "city": "九江市"}}, {"type": "Feature", "id": 1161, "geometry": {"type": "Point", "coordinates": [114.971285042, 27.124817974]}, "properties": {"id": 1161, "name": "吉安店(HD)", "chain_slug": "rt-mart", "category_slug": "supermarket", "address": "吉安市吉州大道与鹭洲路交汇处", "city": "吉安市"}}, {"type": "Feature", "id": 1162, "geometry": {"type": "Point", "coordinates": [120.457516322, 32.540867796]}, "properties": {"id": 1162, "name": "海安店", "chain_slug": "rt-mart", "category_slug": "supermarket", "address": "江苏省南通市海安市高新区中坝中路41号海安喜润城B1层", "city": "南通市"}}, {"type": "Feature", "id": 1163, "geometry": {"type": "Point", "coordinates": [113.023403295, 28.188290752]}, "properties": {"id": 1163, "name": "芙蓉店(HD)", "chain_slug": "rt-mart", "category_slug": "supermarket", "address": "长沙市芙蓉区万家丽路188号", "city": "长沙市"}}, {"type": "Feature", "id": 1164, "geometry": {"type": "Point", "coordinates": [111.692667064, 29.044421225]}, "properties": {"id": 1164, "name": "常德店(HD)", "chain_slug": "rt-mart", "category_slug": "supermarket", "address": "常德市洞庭大道与朗州路交汇处", "city": "常德市"}}, {"type": "Feature", "id": 1165, "geometry": {"type": "Point", "coordinates": [112.997879468, 28.130431297]}, "properties": {"id": 1165, "name": "天心店(HD)", "chain_slug": "rt-mart", "category_slug": "supermarket", "address": "长沙天心区韶山南路828号", "city": "长沙市"}}, {"type": "Feature", "id": 1166, "geometry": {"type": "Point", "coordinates": [113.124213542, 29.367939008]}, "properties": {"id": 1166, "name": "岳阳店(HD)", "chain_slug": "rt-mart", "category_slug": "supermarket", "address": "岳阳市岳阳楼区青年路与建湘路交汇处", "city": "岳阳市"}}, {"type": "Feature", "id": 1167, "geometry": {"type": "Point", "coordinates": [109.966060441, 27.554144548]}, "properties": {"id": 1167, "name": "怀化店(HD)", "chain_slug": "rt-mart", "category_slug": "supermarket", "address": "湖南怀化市人民南路与人民东路口", "city": "怀化市"}}, {"type": "Feature", "id": 1168, "geometry": {"type": "Point", "coordinates": [113.621772333, 28.160302378]}, "properties": {"id": 1168, "name": "浏阳店(HD)", "chain_slug": "rt-mart", "category_slug": "supermarket", "address": "湖南省浏阳市集里街道办事处石霜路与花炮大道汇处", "city": "长沙市"}}, {"type": "Feature", "id": 1169, "geometry": {"type": "Point", "coordinates": [120.72237214, 30.777605567]}, "properties": {"id": 1169, "name": "嘉兴-M轻享店", "chain_slug": "rt-mart", "category_slug": "supermarket", "address": "嘉兴市经济技术开发区中环西路1915号", "city": "嘉兴市"}}, {"type": "Feature", "id": 1170, "geometry": {"type": "Point", "coordinates": [120.171758375, 33.339057168]}, "properties": {"id": 1170, "name": "盐城-M轻享店", "chain_slug": "rt-mart", "category_slug": "supermarket", "address": "盐城市盐南高新区人民南路88号", "city": "盐城市"}}, {"type": "Feature", "id": 1171, "geometry": {"type": "Point", "coordinates": [119.921865128, 32.508724706]}, "properties": {"id": 1171, "name": "泰州-M轻享店", "chain_slug": "rt-mart", "category_slug": "supermarket", "address": "江苏省泰州市海陵区智堡路", "city": "泰州市"}}, {"type": "Feature", "id": 1172, "geometry": {"type": "Point", "coordinates": [120.096298921, 30.912378926]}, "properties": {"id": 1172, "name": "湖州吾悦广场店", "chain_slug": "rt-mart", "category_slug": "supermarket", "address": "湖州南太湖新区仁皇山街道太湖路1699号吾悦广场A座商铺Z01", "city": "湖州市"}}, {"type": "Feature", "id": 1173, "geometry": {"type": "Point", "coordinates": [119.363275784, 33.235335204]}, "properties": {"id": 1173, "name": "宝应店", "chain_slug": "rt-mart", "category_slug": "supermarket", "address": "江苏省宝应县东阳路与南园路交叉处西北角", "city": "扬州市"}}, {"type": "Feature", "id": 1174, "geometry": {"type": "Point", "coordinates": [117.262147866, 31.815615139]}, "properties": {"id": 1174, "name": "大融城店", "chain_slug": "rt-mart", "category_slug": "supermarket", "address": "安徽省合肥市包河区绿地大融城负一楼收货区", "city": "合肥市"}}, {"type": "Feature", "id": 1175, "geometry": {"type": "Point", "coordinates": [119.406410213, 32.372397388]}, "properties": {"id": 1175, "name": "扬州店-M", "chain_slug": "rt-mart", "category_slug": "supermarket", "address": "扬州市江阳中路425号", "city": "扬州市"}}, {"type": "Feature", "id": 1176, "geometry": {"type": "Point", "coordinates": [118.744204098, 32.030448476]}, "properties": {"id": 1176, "name": "南京店-M", "chain_slug": "rt-mart", "category_slug": "supermarket", "address": "南京应天大街866号（湖西街口）", "city": "南京市"}}, {"type": "Feature", "id": 1177, "geometry": {"type": "Point", "coordinates": [119.94056189, 31.75173489]}, "properties": {"id": 1177, "name": "常州店-M", "chain_slug": "rt-mart", "category_slug": "supermarket", "address": "常州市兰陵北路301号", "city": "常州市"}}, {"type": "Feature", "id": 1178, "geometry": {"type": "Point", "coordinates": [120.763025107, 31.66671101]}, "properties": {"id": 1178, "name": "常熟店-M", "chain_slug": "rt-mart", "category_slug": "supermarket", "address": "常熟市琴川街道珠江东路98号", "city": "苏州市"}}, {"type": "Feature", "id": 1179, "geometry": {"type": "Point", "coordinates": [120.233603418, 31.908145901]}, "properties": {"id": 1179, "name": "江阴店-M", "chain_slug": "rt-mart", "category_slug": "supermarket", "address": "江阴市普惠北路555号", "city": "无锡市"}}, {"type": "Feature", "id": 1180, "geometry": {"type": "Point", "coordinates": [120.299723966, 31.559460417]}, "properties": {"id": 1180, "name": "无锡店-M", "chain_slug": "rt-mart", "category_slug": "supermarket", "address": "无锡市梁溪区清扬路39号", "city": "无锡市"}}, {"type": "Feature", "id": 1181, "geometry": {"type": "Point", "coordinates": [121.528630767, 31.315948902]}, "properties": {"id": 1181, "name": "中原店-AU", "chain_slug": "rt-mart", "category_slug": "supermarket", "address": "上海杨浦区中原路102 号", "city": "上海市"}}, {"type": "Feature", "id": 1182, "geometry": {"type": "Point", "coordinates": [121.533223479, 31.272306896]}, "properties": {"id": 1182, "name": "长阳店-AU", "chain_slug": "rt-mart", "category_slug": "supermarket", "address": "上海杨浦区长阳路1750号", "city": "上海市"}}, {"type": "Feature", "id": 1183, "geometry": {"type": "Point", "coordinates": [121.730058043, 31.050766081]}, "properties": {"id": 1183, "name": "南汇店-AU", "chain_slug": "rt-mart", "category_slug": "supermarket", "address": "上海市南汇区人民西路955号", "city": "上海市"}}, {"type": "Feature", "id": 1184, "geometry": {"type": "Point", "coordinates": [121.332159889, 30.748301598]}, "properties": {"id": 1184, "name": "蒙山北路店", "chain_slug": "rt-mart", "category_slug": "supermarket", "address": "上海金山石化蒙山北路399号", "city": "上海市"}}, {"type": "Feature", "id": 1185, "geometry": {"type": "Point", "coordinates": [121.24950739, 31.385653462]}, "properties": {"id": 1185, "name": "嘉定店-AU", "chain_slug": "rt-mart", "category_slug": "supermarket", "address": "上海市嘉定区博乐路99号", "city": "上海市"}}, {"type": "Feature", "id": 1186, "geometry": {"type": "Point", "coordinates": [121.274105172, 31.387368793]}, "properties": {"id": 1186, "name": "澄浏店-AU", "chain_slug": "rt-mart", "category_slug": "supermarket", "address": "上海市嘉定区澄浏中路3088号", "city": "上海市"}}, {"type": "Feature", "id": 1187, "geometry": {"type": "Point", "coordinates": [121.597402346, 31.205556036]}, "properties": {"id": 1187, "name": "张江店-AU", "chain_slug": "rt-mart", "category_slug": "supermarket", "address": "上海市浦东新区金科路3057号", "city": "上海市"}}, {"type": "Feature", "id": 1188, "geometry": {"type": "Point", "coordinates": [121.394260428, 31.08729454]}, "properties": {"id": 1188, "name": "金都店-AU", "chain_slug": "rt-mart", "category_slug": "supermarket", "address": "上海市闵行区都市路3759号龙盛广场地下2层", "city": "上海市"}}, {"type": "Feature", "id": 1189, "geometry": {"type": "Point", "coordinates": [121.530841442, 29.884551065]}, "properties": {"id": 1189, "name": "海曙店-AU", "chain_slug": "rt-mart", "category_slug": "supermarket", "address": "宁波市翠柏路160号", "city": "宁波市"}}, {"type": "Feature", "id": 1190, "geometry": {"type": "Point", "coordinates": [121.592275207, 29.858113946]}, "properties": {"id": 1190, "name": "江东店-AU", "chain_slug": "rt-mart", "category_slug": "supermarket", "address": "宁波江东区百丈东路1188号", "city": "宁波市"}}, {"type": "Feature", "id": 1191, "geometry": {"type": "Point", "coordinates": [120.777424633, 30.757976558]}, "properties": {"id": 1191, "name": "南湖店-AU", "chain_slug": "rt-mart", "category_slug": "supermarket", "address": "嘉兴市中环东路1468号", "city": "嘉兴市"}}, {"type": "Feature", "id": 1192, "geometry": {"type": "Point", "coordinates": [121.590656614, 29.973407118]}, "properties": {"id": 1192, "name": "镇海店-AU", "chain_slug": "rt-mart", "category_slug": "supermarket", "address": "宁波市镇海区骆驼镇东邑北路580", "city": "宁波市"}}, {"type": "Feature", "id": 1193, "geometry": {"type": "Point", "coordinates": [121.521551053, 29.898222011]}, "properties": {"id": 1193, "name": "高鑫广场店-AU", "chain_slug": "rt-mart", "category_slug": "supermarket", "address": "宁波市新星路111号", "city": "宁波市"}}, {"type": "Feature", "id": 1194, "geometry": {"type": "Point", "coordinates": [121.501189763, 29.938609774]}, "properties": {"id": 1194, "name": "洪塘店-AU", "chain_slug": "rt-mart", "category_slug": "supermarket", "address": "浙江省宁波市江北区洪塘中路", "city": "宁波市"}}, {"type": "Feature", "id": 1195, "geometry": {"type": "Point", "coordinates": [122.315802939, 29.968049396]}, "properties": {"id": 1195, "name": "舟山店-AU", "chain_slug": "rt-mart", "category_slug": "supermarket", "address": "舟山市普陀区东港兴普大道266号", "city": "舟山市"}}, {"type": "Feature", "id": 1196, "geometry": {"type": "Point", "coordinates": [121.422844055, 28.647923062]}, "properties": {"id": 1196, "name": "东海店", "chain_slug": "rt-mart", "category_slug": "supermarket", "address": "台州椒江区东海大道455号", "city": "台州市"}}, {"type": "Feature", "id": 1197, "geometry": {"type": "Point", "coordinates": [120.143601401, 30.311318252]}, "properties": {"id": 1197, "name": "大关店-AU", "chain_slug": "rt-mart", "category_slug": "supermarket", "address": "杭州市大关路 213 号", "city": "杭州市"}}, {"type": "Feature", "id": 1198, "geometry": {"type": "Point", "coordinates": [120.593888954, 30.005631586]}, "properties": {"id": 1198, "name": "胜利店-AU", "chain_slug": "rt-mart", "category_slug": "supermarket", "address": "绍兴市胜利东路386号", "city": "绍兴市"}}, {"type": "Feature", "id": 1199, "geometry": {"type": "Point", "coordinates": [119.917622801, 31.012426635]}, "properties": {"id": 1199, "name": "长兴店-AU", "chain_slug": "rt-mart", "category_slug": "supermarket", "address": "湖州市长兴县经一路238号", "city": "湖州市"}}, {"type": "Feature", "id": 1200, "geometry": {"type": "Point", "coordinates": [120.654574953, 31.307112433]}, "properties": {"id": 1200, "name": "金鸡湖店-AU", "chain_slug": "rt-mart", "category_slug": "supermarket", "address": "苏州市工业园区中新大道西181号", "city": "苏州市"}}, {"type": "Feature", "id": 1201, "geometry": {"type": "Point", "coordinates": [120.743776185, 31.298793583]}, "properties": {"id": 1201, "name": "星塘店-AU", "chain_slug": "rt-mart", "category_slug": "supermarket", "address": "江苏省苏州市工业园区淞江路18号", "city": "苏州市"}}, {"type": "Feature", "id": 1202, "geometry": {"type": "Point", "coordinates": [120.621532831, 30.865458158]}, "properties": {"id": 1202, "name": "西二环店-AU", "chain_slug": "rt-mart", "category_slug": "supermarket", "address": "吴江市盛泽镇西二环与市场路口", "city": "苏州市"}}, {"type": "Feature", "id": 1203, "geometry": {"type": "Point", "coordinates": [120.618844921, 31.354158321]}, "properties": {"id": 1203, "name": "陆慕店-AU", "chain_slug": "rt-mart", "category_slug": "supermarket", "address": "苏州相城区齐门北大街228号", "city": "苏州市"}}, {"type": "Feature", "id": 1204, "geometry": {"type": "Point", "coordinates": [120.739689834, 31.677713862]}, "properties": {"id": 1204, "name": "黄河店-AU", "chain_slug": "rt-mart", "category_slug": "supermarket", "address": "常熟市黄河路255号", "city": "苏州市"}}, {"type": "Feature", "id": 1205, "geometry": {"type": "Point", "coordinates": [120.936577403, 31.382096317]}, "properties": {"id": 1205, "name": "前进西路店-AU", "chain_slug": "rt-mart", "category_slug": "supermarket", "address": "昆山市白马泾路46号", "city": "苏州市"}}, {"type": "Feature", "id": 1206, "geometry": {"type": "Point", "coordinates": [120.577384132, 31.843734172]}, "properties": {"id": 1206, "name": "东二环店-AU", "chain_slug": "rt-mart", "category_slug": "supermarket", "address": "张家港市东二环路乘航西路路口", "city": "苏州市"}}, {"type": "Feature", "id": 1207, "geometry": {"type": "Point", "coordinates": [120.330296335, 31.570980716]}, "properties": {"id": 1207, "name": "长江北路店", "chain_slug": "rt-mart", "category_slug": "supermarket", "address": "无锡市长江北路288号", "city": "无锡市"}}, {"type": "Feature", "id": 1208, "geometry": {"type": "Point", "coordinates": [120.26800199, 31.53572643]}, "properties": {"id": 1208, "name": "蠡湖店", "chain_slug": "rt-mart", "category_slug": "supermarket", "address": "无锡市蠡湖大道99号", "city": "无锡市"}}, {"type": "Feature", "id": 1209, "geometry": {"type": "Point", "coordinates": [120.101246841, 31.454350799]}, "properties": {"id": 1209, "name": "云林店", "chain_slug": "rt-mart", "category_slug": "supermarket", "address": "无锡市团结路3号", "city": "无锡市"}}, {"type": "Feature", "id": 1210, "geometry": {"type": "Point", "coordinates": [119.918716609, 31.791186969]}, "properties": {"id": 1210, "name": "勤业店-AU", "chain_slug": "rt-mart", "category_slug": "supermarket", "address": "常州市勤业路285号", "city": "常州市"}}, {"type": "Feature", "id": 1211, "geometry": {"type": "Point", "coordinates": [119.969814282, 31.794635398]}, "properties": {"id": 1211, "name": "永宁店-AU", "chain_slug": "rt-mart", "category_slug": "supermarket", "address": "常州市永宁北路18号", "city": "常州市"}}, {"type": "Feature", "id": 1212, "geometry": {"type": "Point", "coordinates": [118.741706528, 32.040237908]}, "properties": {"id": 1212, "name": "汉中门店-AU", "chain_slug": "rt-mart", "category_slug": "supermarket", "address": "南京市汉中门大街151号", "city": "南京市"}}, {"type": "Feature", "id": 1213, "geometry": {"type": "Point", "coordinates": [118.813404263, 31.95420698]}, "properties": {"id": 1213, "name": "江宁店", "chain_slug": "rt-mart", "category_slug": "supermarket", "address": "南京市江宁区秦淮路11号", "city": "南京市"}}, {"type": "Feature", "id": 1214, "geometry": {"type": "Point", "coordinates": [118.368768912, 31.372506754]}, "properties": {"id": 1214, "name": "天门山店-AU", "chain_slug": "rt-mart", "category_slug": "supermarket", "address": "安徽省芜湖市银湖中路1号", "city": "芜湖市"}}, {"type": "Feature", "id": 1215, "geometry": {"type": "Point", "coordinates": [118.509189097, 31.674904031]}, "properties": {"id": 1215, "name": "花雨店-AU", "chain_slug": "rt-mart", "category_slug": "supermarket", "address": "马鞍山市江东大道与雨山路交叉口", "city": "马鞍山市"}}, {"type": "Feature", "id": 1216, "geometry": {"type": "Point", "coordinates": [118.368313335, 31.30773079]}, "properties": {"id": 1216, "name": "花津店-AU", "chain_slug": "rt-mart", "category_slug": "supermarket", "address": "芜湖市弋江区花津南路66号", "city": "芜湖市"}}, {"type": "Feature", "id": 1217, "geometry": {"type": "Point", "coordinates": [117.095933389, 30.524091398]}, "properties": {"id": 1217, "name": "皖江店-AU", "chain_slug": "rt-mart", "category_slug": "supermarket", "address": "安庆市迎江区独秀大道168号1", "city": "安庆市"}}, {"type": "Feature", "id": 1218, "geometry": {"type": "Point", "coordinates": [118.41120425, 31.362524023]}, "properties": {"id": 1218, "name": "鸠江店-AU", "chain_slug": "rt-mart", "category_slug": "supermarket", "address": "安徽省芜湖市鸠江北路29号", "city": "芜湖市"}}, {"type": "Feature", "id": 1219, "geometry": {"type": "Point", "coordinates": [117.344980303, 32.919132512]}, "properties": {"id": 1219, "name": "蚌埠店-AU", "chain_slug": "rt-mart", "category_slug": "supermarket", "address": "蚌埠市禹会区朝阳路851号", "city": "蚌埠市"}}, {"type": "Feature", "id": 1220, "geometry": {"type": "Point", "coordinates": [118.794144179, 34.103327541]}, "properties": {"id": 1220, "name": "台州南路店-AU", "chain_slug": "rt-mart", "category_slug": "supermarket", "address": "宿迁市沭阳县台州南路68号乐之地", "city": "宿迁市"}}, {"type": "Feature", "id": 1221, "geometry": {"type": "Point", "coordinates": [121.178006163, 31.886810269]}, "properties": {"id": 1221, "name": "海门店", "chain_slug": "rt-mart", "category_slug": "supermarket", "address": "海门市海门镇长江路东黄海路南侧", "city": "南通市"}}, {"type": "Feature", "id": 1222, "geometry": {"type": "Point", "coordinates": [120.889622141, 31.971198135]}, "properties": {"id": 1222, "name": "工农店-AU", "chain_slug": "rt-mart", "category_slug": "supermarket", "address": "南通市崇川区桃园路12号", "city": "南通市"}}, {"type": "Feature", "id": 1223, "geometry": {"type": "Point", "coordinates": [120.829009447, 32.042511776]}, "properties": {"id": 1223, "name": "港闸店-AU", "chain_slug": "rt-mart", "category_slug": "supermarket", "address": "南通市港闸区长平路6号", "city": "南通市"}}, {"type": "Feature", "id": 1224, "geometry": {"type": "Point", "coordinates": [121.176375682, 32.320585524]}, "properties": {"id": 1224, "name": "如东店-AU", "chain_slug": "rt-mart", "category_slug": "supermarket", "address": "南通市如东县掘港镇通海路9号", "city": "南通市"}}, {"type": "Feature", "id": 1225, "geometry": {"type": "Point", "coordinates": [119.568557627, 31.985808115]}, "properties": {"id": 1225, "name": "南环店-AU", "chain_slug": "rt-mart", "category_slug": "supermarket", "address": "丹阳市南环路（东亚大酒店对面）", "city": "镇江市"}}, {"type": "Feature", "id": 1226, "geometry": {"type": "Point", "coordinates": [119.602159187, 32.00587076]}, "properties": {"id": 1226, "name": "金陵西路店-AU", "chain_slug": "rt-mart", "category_slug": "supermarket", "address": "丹阳市开发区金陵西路与凤凰路", "city": "镇江市"}}, {"type": "Feature", "id": 1227, "geometry": {"type": "Point", "coordinates": [119.945149034, 31.76768291]}, "properties": {"id": 1227, "name": "九洲店", "chain_slug": "rt-mart", "category_slug": "supermarket", "address": "常州市天宁区劳动西路与新艺路交汇处九洲新世界广场", "city": "常州市"}}, {"type": "Feature", "id": 1228, "geometry": {"type": "Point", "coordinates": [117.031182156, 36.655029763]}, "properties": {"id": 1228, "name": "历下店", "chain_slug": "rt-mart", "category_slug": "supermarket", "address": "济南市历下区文化西路1号", "city": "济南市"}}, {"type": "Feature", "id": 1229, "geometry": {"type": "Point", "coordinates": [116.985091209, 36.631349601]}, "properties": {"id": 1229, "name": "市中店", "chain_slug": "rt-mart", "category_slug": "supermarket", "address": "济南市市中区二七新村南路9号", "city": "济南市"}}, {"type": "Feature", "id": 1230, "geometry": {"type": "Point", "coordinates": [121.3740536, 37.54015365]}, "properties": {"id": 1230, "name": "芝罘店", "chain_slug": "rt-mart", "category_slug": "supermarket", "address": "烟台市芝罘区南大街166号", "city": "烟台市"}}, {"type": "Feature", "id": 1231, "geometry": {"type": "Point", "coordinates": [120.387694919, 36.081258155]}, "properties": {"id": 1231, "name": "宁夏店", "chain_slug": "rt-mart", "category_slug": "supermarket", "address": "青岛市市南区宁夏路162号", "city": "青岛市"}}, {"type": "Feature", "id": 1232, "geometry": {"type": "Point", "coordinates": [116.975029243, 36.674729185]}, "properties": {"id": 1232, "name": "天桥店", "chain_slug": "rt-mart", "category_slug": "supermarket", "address": "济南市天桥区堤口路80号", "city": "济南市"}}, {"type": "Feature", "id": 1233, "geometry": {"type": "Point", "coordinates": [115.669797023, 38.825100166]}, "properties": {"id": 1233, "name": "保定店", "chain_slug": "rt-mart", "category_slug": "supermarket", "address": "保定市环城北路地下商场", "city": "保定市"}}, {"type": "Feature", "id": 1234, "geometry": {"type": "Point", "coordinates": [118.035521712, 36.821150445]}, "properties": {"id": 1234, "name": "淄博店", "chain_slug": "rt-mart", "category_slug": "supermarket", "address": "淄博市张店区华光路86号", "city": "淄博市"}}, {"type": "Feature", "id": 1235, "geometry": {"type": "Point", "coordinates": [122.129418121, 37.487090954]}, "properties": {"id": 1235, "name": "侨乡店", "chain_slug": "rt-mart", "category_slug": "supermarket", "address": "威海市环翠区海滨北路128号", "city": "威海市"}}, {"type": "Feature", "id": 1236, "geometry": {"type": "Point", "coordinates": [117.195147148, 39.073870635]}, "properties": {"id": 1236, "name": "紫金山店", "chain_slug": "rt-mart", "category_slug": "supermarket", "address": "天津市河西区紫金山路与黑牛城道交口处(纪庄子桥北侧)", "city": "天津市"}}, {"type": "Feature", "id": 1237, "geometry": {"type": "Point", "coordinates": [120.3927185, 36.315491054]}, "properties": {"id": 1237, "name": "春阳店", "chain_slug": "rt-mart", "category_slug": "supermarket", "address": "青岛市城阳区城阳街道春阳路167号", "city": "青岛市"}}, {"type": "Feature", "id": 1238, "geometry": {"type": "Point", "coordinates": [118.166470303, 39.643276486]}, "properties": {"id": 1238, "name": "华岩店", "chain_slug": "rt-mart", "category_slug": "supermarket", "address": "河北省唐山市路北区华岩北路9号", "city": "唐山市"}}, {"type": "Feature", "id": 1239, "geometry": {"type": "Point", "coordinates": [117.27388696, 39.068257955]}, "properties": {"id": 1239, "name": "大沽南路店", "chain_slug": "rt-mart", "category_slug": "supermarket", "address": "天津市河西区大沽南路与长湖路交汇处东南角", "city": "天津市"}}, {"type": "Feature", "id": 1240, "geometry": {"type": "Point", "coordinates": [120.430763447, 36.391139798]}, "properties": {"id": 1240, "name": "即墨店", "chain_slug": "rt-mart", "category_slug": "supermarket", "address": "青岛即墨市振华街与嵩山一路交汇处西南角", "city": "青岛市"}}, {"type": "Feature", "id": 1241, "geometry": {"type": "Point", "coordinates": [116.600369595, 35.409224053]}, "properties": {"id": 1241, "name": "济宁店", "chain_slug": "rt-mart", "category_slug": "supermarket", "address": "济宁市琵琶山路与刘庄路交叉口", "city": "济宁市"}}, {"type": "Feature", "id": 1242, "geometry": {"type": "Point", "coordinates": [122.430638176, 37.154945257]}, "properties": {"id": 1242, "name": "荣成店", "chain_slug": "rt-mart", "category_slug": "supermarket", "address": "荣成市成山大道与台上南街交汇处", "city": "威海市"}}, {"type": "Feature", "id": 1243, "geometry": {"type": "Point", "coordinates": [120.707564645, 36.967343493]}, "properties": {"id": 1243, "name": "莱阳店", "chain_slug": "rt-mart", "category_slug": "supermarket", "address": "莱阳市龙门西路18号", "city": "烟台市"}}, {"type": "Feature", "id": 1244, "geometry": {"type": "Point", "coordinates": [118.477825224, 36.630262369]}, "properties": {"id": 1244, "name": "青州店", "chain_slug": "rt-mart", "category_slug": "supermarket", "address": "青州市云门山路与范公亭交汇处购物广场A段一层", "city": "潍坊市"}}, {"type": "Feature", "id": 1245, "geometry": {"type": "Point", "coordinates": [117.678709801, 36.221551161]}, "properties": {"id": 1245, "name": "莱芜店", "chain_slug": "rt-mart", "category_slug": "supermarket", "address": "莱芜汶源大街以北花园北路以西", "city": "济南市"}}, {"type": "Feature", "id": 1246, "geometry": {"type": "Point", "coordinates": [114.200404723, 34.405403864]}, "properties": {"id": 1246, "name": "解放店", "chain_slug": "rt-mart", "category_slug": "supermarket", "address": "开封市自由路与解放大道交叉口", "city": "开封市"}}, {"type": "Feature", "id": 1247, "geometry": {"type": "Point", "coordinates": [118.016228205, 37.378082113]}, "properties": {"id": 1247, "name": "滨州店", "chain_slug": "rt-mart", "category_slug": "supermarket", "address": "滨州市黄河六路与渤海七路交叉口东南角", "city": "滨州市"}}, {"type": "Feature", "id": 1248, "geometry": {"type": "Point", "coordinates": [119.95209475, 36.781169637]}, "properties": {"id": 1248, "name": "平度店", "chain_slug": "rt-mart", "category_slug": "supermarket", "address": "青岛平度市苏州路与济南路交汇处", "city": "青岛市"}}, {"type": "Feature", "id": 1249, "geometry": {"type": "Point", "coordinates": [117.103306519, 36.190447742]}, "properties": {"id": 1249, "name": "泰安店", "chain_slug": "rt-mart", "category_slug": "supermarket", "address": "山东省泰安市泰山区东岳大街333号", "city": "泰安市"}}, {"type": "Feature", "id": 1250, "geometry": {"type": "Point", "coordinates": [113.67590448, 34.740532135]}, "properties": {"id": 1250, "name": "陇海店", "chain_slug": "rt-mart", "category_slug": "supermarket", "address": "郑州市紫荆山路与陇海路交汇处东北角", "city": "郑州市"}}, {"type": "Feature", "id": 1251, "geometry": {"type": "Point", "coordinates": [122.028216868, 37.198129572]}, "properties": {"id": 1251, "name": "文登店", "chain_slug": "rt-mart", "category_slug": "supermarket", "address": "文登市昆嵛路西,横山路北交汇处", "city": "威海市"}}, {"type": "Feature", "id": 1252, "geometry": {"type": "Point", "coordinates": [119.489159603, 35.4171228]}, "properties": {"id": 1252, "name": "日照店", "chain_slug": "rt-mart", "category_slug": "supermarket", "address": "日照市东港区海曲路与兖州路交汇处", "city": "日照市"}}, {"type": "Feature", "id": 1253, "geometry": {"type": "Point", "coordinates": [120.396128898, 36.297543321]}, "properties": {"id": 1253, "name": "长城店", "chain_slug": "rt-mart", "category_slug": "supermarket", "address": "城阳区长城路宝龙城市广场1号楼", "city": "青岛市"}}, {"type": "Feature", "id": 1254, "geometry": {"type": "Point", "coordinates": [110.001656057, 39.816006491]}, "properties": {"id": 1254, "name": "东胜店", "chain_slug": "rt-mart", "category_slug": "supermarket", "address": "内蒙古鄂尔多斯市东胜区伊金霍洛东街与准格尔北路交汇", "city": "鄂尔多斯市"}}, {"type": "Feature", "id": 1255, "geometry": {"type": "Point", "coordinates": [120.429769514, 36.109171138]}, "properties": {"id": 1255, "name": "崂山店", "chain_slug": "rt-mart", "category_slug": "supermarket", "address": "青岛市崂山区辽阳东路12号", "city": "青岛市"}}, {"type": "Feature", "id": 1256, "geometry": {"type": "Point", "coordinates": [117.555033913, 34.858432499]}, "properties": {"id": 1256, "name": "枣庄店", "chain_slug": "rt-mart", "category_slug": "supermarket", "address": "枣庄市市中区振兴北路109号", "city": "枣庄市"}}, {"type": "Feature", "id": 1257, "geometry": {"type": "Point", "coordinates": [122.092838505, 37.501795696]}, "properties": {"id": 1257, "name": "世昌店", "chain_slug": "rt-mart", "category_slug": "supermarket", "address": "威海火炬高技术产业开发区世昌大道100号", "city": "威海市"}}, {"type": "Feature", "id": 1258, "geometry": {"type": "Point", "coordinates": [117.938541185, 40.976148723]}, "properties": {"id": 1258, "name": "承德店", "chain_slug": "rt-mart", "category_slug": "supermarket", "address": "承德市武烈路与都统府大街交叉口处西北角", "city": "承德市"}}, {"type": "Feature", "id": 1259, "geometry": {"type": "Point", "coordinates": [112.58297119, 35.089017823]}, "properties": {"id": 1259, "name": "济水店", "chain_slug": "rt-mart", "category_slug": "supermarket", "address": "济源市济水大街以北建设银行西侧", "city": "济源市"}}, {"type": "Feature", "id": 1260, "geometry": {"type": "Point", "coordinates": [117.545334136, 36.707524933]}, "properties": {"id": 1260, "name": "章丘店", "chain_slug": "rt-mart", "category_slug": "supermarket", "address": "山东省章丘市山泉路南", "city": "济南市"}}, {"type": "Feature", "id": 1261, "geometry": {"type": "Point", "coordinates": [117.055696343, 36.702811847]}, "properties": {"id": 1261, "name": "全福店", "chain_slug": "rt-mart", "category_slug": "supermarket", "address": "济南市历城区北园大街与二环东路西北角", "city": "济南市"}}, {"type": "Feature", "id": 1262, "geometry": {"type": "Point", "coordinates": [120.004819027, 36.292034301]}, "properties": {"id": 1262, "name": "阜安店", "chain_slug": "rt-mart", "category_slug": "supermarket", "address": "青岛胶州市广州北路187号", "city": "青岛市"}}, {"type": "Feature", "id": 1263, "geometry": {"type": "Point", "coordinates": [113.274623757, 40.07071043]}, "properties": {"id": 1263, "name": "西环店", "chain_slug": "rt-mart", "category_slug": "supermarket", "address": "大同西环路与大庆路交叉口西南角", "city": "大同市"}}, {"type": "Feature", "id": 1264, "geometry": {"type": "Point", "coordinates": [115.521126717, 34.837649773]}, "properties": {"id": 1264, "name": "曹县店", "chain_slug": "rt-mart", "category_slug": "supermarket", "address": "菏泽市曹县清荷南路与湘江西路交汇处（世纪名城大润发", "city": "菏泽市"}}, {"type": "Feature", "id": 1265, "geometry": {"type": "Point", "coordinates": [118.31240293, 35.083638537]}, "properties": {"id": 1265, "name": "蒙山店", "chain_slug": "rt-mart", "category_slug": "supermarket", "address": "山东省临沂市蒙山大道与北园路交汇处", "city": "临沂市"}}, {"type": "Feature", "id": 1266, "geometry": {"type": "Point", "coordinates": [121.259241849, 37.506774847]}, "properties": {"id": 1266, "name": "福海路店", "chain_slug": "rt-mart", "category_slug": "supermarket", "address": "山东省烟台市福山区福海路与崇文路交汇处（大润广场", "city": "烟台市"}}, {"type": "Feature", "id": 1267, "geometry": {"type": "Point", "coordinates": [119.142093443, 36.718335577]}, "properties": {"id": 1267, "name": "奎文店", "chain_slug": "rt-mart", "category_slug": "supermarket", "address": "新华路与福寿街交叉口西南角", "city": "潍坊市"}}, {"type": "Feature", "id": 1268, "geometry": {"type": "Point", "coordinates": [116.808921611, 35.555410904]}, "properties": {"id": 1268, "name": "兖州店", "chain_slug": "rt-mart", "category_slug": "supermarket", "address": "兖州市龙桥路与建设路交叉口西北角", "city": "济宁市"}}, {"type": "Feature", "id": 1269, "geometry": {"type": "Point", "coordinates": [120.022126081, 36.271284486]}, "properties": {"id": 1269, "name": "三里河店", "chain_slug": "rt-mart", "category_slug": "supermarket", "address": "青岛胶州市福州南路97号", "city": "青岛市"}}, {"type": "Feature", "id": 1270, "geometry": {"type": "Point", "coordinates": [117.089165038, 36.657115752]}, "properties": {"id": 1270, "name": "经十东路店", "chain_slug": "rt-mart", "category_slug": "supermarket", "address": "济南市经十路11899号", "city": "济南市"}}, {"type": "Feature", "id": 1271, "geometry": {"type": "Point", "coordinates": [118.34124978, 35.113759842]}, "properties": {"id": 1271, "name": "北城店", "chain_slug": "rt-mart", "category_slug": "supermarket", "address": "临沂市北城新区汶河路与天津路交汇处", "city": "临沂市"}}, {"type": "Feature", "id": 1272, "geometry": {"type": "Point", "coordinates": [119.931849137, 37.185855335]}, "properties": {"id": 1272, "name": "莱州店", "chain_slug": "rt-mart", "category_slug": "supermarket", "address": "莱州市原行星机械厂光安路", "city": "烟台市"}}, {"type": "Feature", "id": 1273, "geometry": {"type": "Point", "coordinates": [117.157200073, 35.080640539]}, "properties": {"id": 1273, "name": "滕州店", "chain_slug": "rt-mart", "category_slug": "supermarket", "address": "滕州市荆河中路处", "city": "枣庄市"}}, {"type": "Feature", "id": 1274, "geometry": {"type": "Point", "coordinates": [115.992801087, 36.457096635]}, "properties": {"id": 1274, "name": "东昌店", "chain_slug": "rt-mart", "category_slug": "supermarket", "address": "聊城市东昌东路与花园路交叉口东200米路南", "city": "聊城市"}}, {"type": "Feature", "id": 1275, "geometry": {"type": "Point", "coordinates": [118.333444504, 35.064070157]}, "properties": {"id": 1275, "name": "红旗店", "chain_slug": "rt-mart", "category_slug": "supermarket", "address": "临沂市人民广场北侧兰山区新华路28号", "city": "临沂市"}}, {"type": "Feature", "id": 1276, "geometry": {"type": "Point", "coordinates": [121.252208855, 37.539276521]}, "properties": {"id": 1276, "name": "衡山店", "chain_slug": "rt-mart", "category_slug": "supermarket", "address": "烟台经济技术开发区衡山路58号", "city": "烟台市"}}, {"type": "Feature", "id": 1277, "geometry": {"type": "Point", "coordinates": [118.689108175, 39.996902618]}, "properties": {"id": 1277, "name": "迁安店", "chain_slug": "rt-mart", "category_slug": "supermarket", "address": "迁安市钢城大街与和平路交汇处西北角", "city": "唐山市"}}, {"type": "Feature", "id": 1278, "geometry": {"type": "Point", "coordinates": [117.011991048, 36.700768626]}, "properties": {"id": 1278, "name": "小清河店", "chain_slug": "rt-mart", "category_slug": "supermarket", "address": "山东省济南市天桥区小清河南路10777号", "city": "济南市"}}, {"type": "Feature", "id": 1279, "geometry": {"type": "Point", "coordinates": [120.157432469, 35.942287964]}, "properties": {"id": 1279, "name": "长江西路店", "chain_slug": "rt-mart", "category_slug": "supermarket", "address": "青岛市黄岛区峨眉山路与长江西路交叉口", "city": "青岛市"}}, {"type": "Feature", "id": 1280, "geometry": {"type": "Point", "coordinates": [103.86893971, 36.061232512]}, "properties": {"id": 1280, "name": "兰州店(HB)", "chain_slug": "rt-mart", "category_slug": "supermarket", "address": "兰州市城关区雁滩路3113号", "city": "兰州市"}}, {"type": "Feature", "id": 1281, "geometry": {"type": "Point", "coordinates": [108.903115046, 34.248602345]}, "properties": {"id": 1281, "name": "大唐西市店(HB)", "chain_slug": "rt-mart", "category_slug": "supermarket", "address": "西安市莲湖区劳动南路1号", "city": "西安市"}}, {"type": "Feature", "id": 1282, "geometry": {"type": "Point", "coordinates": [101.718776522, 36.644075432]}, "properties": {"id": 1282, "name": "海湖店(HB)", "chain_slug": "rt-mart", "category_slug": "supermarket", "address": "青海省西宁市海湖新区五四西路与文汇路交汇处", "city": "西宁市"}}, {"type": "Feature", "id": 1283, "geometry": {"type": "Point", "coordinates": [106.175324477, 38.471023403]}, "properties": {"id": 1283, "name": "金凤店(HB)", "chain_slug": "rt-mart", "category_slug": "supermarket", "address": "银川市金凤区北京中路与通达南街交汇处", "city": "银川市"}}, {"type": "Feature", "id": 1284, "geometry": {"type": "Point", "coordinates": [103.752306329, 36.075297306]}, "properties": {"id": 1284, "name": "兰石店（HB)", "chain_slug": "rt-mart", "category_slug": "supermarket", "address": "甘肃省兰州市七里河区瓜州路1226负一层", "city": "兰州市"}}, {"type": "Feature", "id": 1285, "geometry": {"type": "Point", "coordinates": [118.685781987, 37.443553675]}, "properties": {"id": 1285, "name": "东营东城万达店", "chain_slug": "rt-mart", "category_slug": "supermarket", "address": "山东省东营市东营区东城万达广场", "city": "东营市"}}, {"type": "Feature", "id": 1286, "geometry": {"type": "Point", "coordinates": [118.004927451, 36.838447016]}, "properties": {"id": 1286, "name": "福园店", "chain_slug": "rt-mart", "category_slug": "supermarket", "address": "淄博市张店世纪路与共青团路交叉路交叉口东南角", "city": "淄博市"}}, {"type": "Feature", "id": 1287, "geometry": {"type": "Point", "coordinates": [118.138525962, 39.635892254]}, "properties": {"id": 1287, "name": "路北店", "chain_slug": "rt-mart", "category_slug": "supermarket", "address": "河北省唐山市路北区智源里凤城现代广场103号负一层", "city": "唐山市"}}, {"type": "Feature", "id": 1288, "geometry": {"type": "Point", "coordinates": [116.283133448, 39.834566537]}, "properties": {"id": 1288, "name": "科兴店-AU", "chain_slug": "rt-mart", "category_slug": "supermarket", "address": "北京丰台区邻枫路1号", "city": "北京市"}}, {"type": "Feature", "id": 1289, "geometry": {"type": "Point", "coordinates": [126.562797787, 43.849446581]}, "properties": {"id": 1289, "name": "东市店", "chain_slug": "rt-mart", "category_slug": "supermarket", "address": "吉林市昌邑区成都路汇龙广场A座", "city": "吉林市"}}, {"type": "Feature", "id": 1290, "geometry": {"type": "Point", "coordinates": [123.958572535, 47.338865573]}, "properties": {"id": 1290, "name": "龙沙店", "chain_slug": "rt-mart", "category_slug": "supermarket", "address": "齐齐哈尔市龙沙区龙华路132号", "city": "齐齐哈尔市"}}, {"type": "Feature", "id": 1291, "geometry": {"type": "Point", "coordinates": [123.393073364, 41.780411397]}, "properties": {"id": 1291, "name": "和平店", "chain_slug": "rt-mart", "category_slug": "supermarket", "address": "沈阳市和平区南京南街78号", "city": "沈阳市"}}, {"type": "Feature", "id": 1292, "geometry": {"type": "Point", "coordinates": [121.118398252, 41.111396966]}, "properties": {"id": 1292, "name": "古塔店", "chain_slug": "rt-mart", "category_slug": "supermarket", "address": "锦州市古塔区北二里锦州华庭18号", "city": "锦州市"}}, {"type": "Feature", "id": 1293, "geometry": {"type": "Point", "coordinates": [129.612045132, 44.58445613]}, "properties": {"id": 1293, "name": "东安店", "chain_slug": "rt-mart", "category_slug": "supermarket", "address": "牡丹江市东安区东一步行街55号", "city": "牡丹江市"}}, {"type": "Feature", "id": 1294, "geometry": {"type": "Point", "coordinates": [122.260694372, 40.67562511]}, "properties": {"id": 1294, "name": "营口店", "chain_slug": "rt-mart", "category_slug": "supermarket", "address": "营口市站前区东升路30号", "city": "营口市"}}, {"type": "Feature", "id": 1295, "geometry": {"type": "Point", "coordinates": [126.661344772, 45.764434864]}, "properties": {"id": 1295, "name": "南岗店", "chain_slug": "rt-mart", "category_slug": "supermarket", "address": "哈尔滨市南岗区宣化街402号", "city": "哈尔滨市"}}, {"type": "Feature", "id": 1296, "geometry": {"type": "Point", "coordinates": [126.58033398, 43.870023926]}, "properties": {"id": 1296, "name": "解放北路店", "chain_slug": "rt-mart", "category_slug": "supermarket", "address": "吉林市昌邑区解放北路149号", "city": "吉林市"}}, {"type": "Feature", "id": 1297, "geometry": {"type": "Point", "coordinates": [130.339388735, 46.797714025]}, "properties": {"id": 1297, "name": "向阳店", "chain_slug": "rt-mart", "category_slug": "supermarket", "address": "佳木斯市向阳区长安路972号", "city": "佳木斯市"}}, {"type": "Feature", "id": 1298, "geometry": {"type": "Point", "coordinates": [122.964609083, 41.1090379]}, "properties": {"id": 1298, "name": "民生店", "chain_slug": "rt-mart", "category_slug": "supermarket", "address": "鞍山市铁西区九道街139号(甲)", "city": "鞍山市"}}, {"type": "Feature", "id": 1299, "geometry": {"type": "Point", "coordinates": [123.446683053, 41.776361547]}, "properties": {"id": 1299, "name": "沈河店", "chain_slug": "rt-mart", "category_slug": "supermarket", "address": "沈阳市沈河区文艺路80号", "city": "沈阳市"}}, {"type": "Feature", "id": 1300, "geometry": {"type": "Point", "coordinates": [126.546567878, 43.841149764]}, "properties": {"id": 1300, "name": "船营店", "chain_slug": "rt-mart", "category_slug": "supermarket", "address": "吉林市船营区解放中路120号", "city": "吉林市"}}, {"type": "Feature", "id": 1301, "geometry": {"type": "Point", "coordinates": [126.672483631, 45.738795522]}, "properties": {"id": 1301, "name": "香坊店", "chain_slug": "rt-mart", "category_slug": "supermarket", "address": "哈尔滨市香坊区赣水路68号", "city": "哈尔滨市"}}, {"type": "Feature", "id": 1302, "geometry": {"type": "Point", "coordinates": [123.964709657, 47.350720746]}, "properties": {"id": 1302, "name": "建华店", "chain_slug": "rt-mart", "category_slug": "supermarket", "address": "齐齐哈尔市建华区军校街300号", "city": "齐齐哈尔市"}}, {"type": "Feature", "id": 1303, "geometry": {"type": "Point", "coordinates": [122.984101204, 41.089590964]}, "properties": {"id": 1303, "name": "中华店", "chain_slug": "rt-mart", "category_slug": "supermarket", "address": "鞍山市铁东区解放东路80号", "city": "鞍山市"}}, {"type": "Feature", "id": 1304, "geometry": {"type": "Point", "coordinates": [120.447751621, 41.57740598]}, "properties": {"id": 1304, "name": "朝阳店", "chain_slug": "rt-mart", "category_slug": "supermarket", "address": "朝阳市朝阳大街二段81号", "city": "朝阳市"}}, {"type": "Feature", "id": 1305, "geometry": {"type": "Point", "coordinates": [124.824017607, 45.130989466]}, "properties": {"id": 1305, "name": "铂金店", "chain_slug": "rt-mart", "category_slug": "supermarket", "address": "吉林省松原市铂金路599号", "city": "松原市"}}, {"type": "Feature", "id": 1306, "geometry": {"type": "Point", "coordinates": [123.338078481, 41.655461215]}, "properties": {"id": 1306, "name": "苏家屯店", "chain_slug": "rt-mart", "category_slug": "supermarket", "address": "沈阳市苏家屯区迎春街141号", "city": "沈阳市"}}, {"type": "Feature", "id": 1307, "geometry": {"type": "Point", "coordinates": [125.260367537, 43.870295872]}, "properties": {"id": 1307, "name": "长春店", "chain_slug": "rt-mart", "category_slug": "supermarket", "address": "汽车产业开发区创业大街456号", "city": "长春市"}}, {"type": "Feature", "id": 1308, "geometry": {"type": "Point", "coordinates": [122.26218773, 43.612788017]}, "properties": {"id": 1308, "name": "通辽店", "chain_slug": "rt-mart", "category_slug": "supermarket", "address": "霍林河大街与和平路交汇处东北角", "city": "通辽市"}}, {"type": "Feature", "id": 1309, "geometry": {"type": "Point", "coordinates": [120.865407779, 40.731440418]}, "properties": {"id": 1309, "name": "葫芦岛店", "chain_slug": "rt-mart", "category_slug": "supermarket", "address": "葫芦岛市龙港区龙湾大街170号楼", "city": "葫芦岛市"}}, {"type": "Feature", "id": 1310, "geometry": {"type": "Point", "coordinates": [126.654274187, 45.781449104]}, "properties": {"id": 1310, "name": "道外店", "chain_slug": "rt-mart", "category_slug": "supermarket", "address": "哈尔滨市道外区太古街210号", "city": "哈尔滨市"}}, {"type": "Feature", "id": 1311, "geometry": {"type": "Point", "coordinates": [122.747223441, 40.851869878]}, "properties": {"id": 1311, "name": "海城店", "chain_slug": "rt-mart", "category_slug": "supermarket", "address": "海城市海州区北关街红星委北顺城路37号", "city": "鞍山市"}}, {"type": "Feature", "id": 1312, "geometry": {"type": "Point", "coordinates": [123.396808669, 41.743187652]}, "properties": {"id": 1312, "name": "长白店", "chain_slug": "rt-mart", "category_slug": "supermarket", "address": "沈阳市和平区南京南街201号", "city": "沈阳市"}}, {"type": "Feature", "id": 1313, "geometry": {"type": "Point", "coordinates": [124.873226408, 46.634232296]}, "properties": {"id": 1313, "name": "西宾店", "chain_slug": "rt-mart", "category_slug": "supermarket", "address": "大庆市让胡路区西宾路116号", "city": "大庆市"}}, {"type": "Feature", "id": 1314, "geometry": {"type": "Point", "coordinates": [121.650650101, 42.014418452]}, "properties": {"id": 1314, "name": "细河店", "chain_slug": "rt-mart", "category_slug": "supermarket", "address": "阜新市细河区中华路63号", "city": "阜新市"}}, {"type": "Feature", "id": 1315, "geometry": {"type": "Point", "coordinates": [124.051573236, 42.538400159]}, "properties": {"id": 1315, "name": "开原店", "chain_slug": "rt-mart", "category_slug": "supermarket", "address": "开原市哈大路188号", "city": "铁岭市"}}, {"type": "Feature", "id": 1316, "geometry": {"type": "Point", "coordinates": [123.334858733, 41.80111966]}, "properties": {"id": 1316, "name": "铁西店", "chain_slug": "rt-mart", "category_slug": "supermarket", "address": "沈阳市铁西区建设西路5号", "city": "沈阳市"}}, {"type": "Feature", "id": 1317, "geometry": {"type": "Point", "coordinates": [123.173551288, 41.261738241]}, "properties": {"id": 1317, "name": "辽阳店", "chain_slug": "rt-mart", "category_slug": "supermarket", "address": "辽阳市白塔区新运大街105号", "city": "辽阳市"}}, {"type": "Feature", "id": 1318, "geometry": {"type": "Point", "coordinates": [126.507707029, 48.243097566]}, "properties": {"id": 1318, "name": "北安店", "chain_slug": "rt-mart", "category_slug": "supermarket", "address": "黑龙江省北安市上海路88号", "city": "黑河市"}}, {"type": "Feature", "id": 1319, "geometry": {"type": "Point", "coordinates": [123.391725564, 41.820689503]}, "properties": {"id": 1319, "name": "皇姑店", "chain_slug": "rt-mart", "category_slug": "supermarket", "address": "沈阳市皇姑区昆山西路2号12门", "city": "沈阳市"}}, {"type": "Feature", "id": 1320, "geometry": {"type": "Point", "coordinates": [126.521355416, 43.872909683]}, "properties": {"id": 1320, "name": "西山店", "chain_slug": "rt-mart", "category_slug": "supermarket", "address": "吉林市昌邑区珲春中街1508号商场", "city": "吉林市"}}, {"type": "Feature", "id": 1321, "geometry": {"type": "Point", "coordinates": [130.324342279, 46.799306415]}, "properties": {"id": 1321, "name": "万新店", "chain_slug": "rt-mart", "category_slug": "supermarket", "address": "佳木斯市郊区万新街399号万新街与勤政路交口处西北角", "city": "佳木斯市"}}, {"type": "Feature", "id": 1322, "geometry": {"type": "Point", "coordinates": [122.833384485, 45.609075741]}, "properties": {"id": 1322, "name": "白城店", "chain_slug": "rt-mart", "category_slug": "supermarket", "address": "吉林省白城市新华西大路2号", "city": "白城市"}}, {"type": "Feature", "id": 1323, "geometry": {"type": "Point", "coordinates": [123.030309552, 41.143971603]}, "properties": {"id": 1323, "name": "立山店", "chain_slug": "rt-mart", "category_slug": "supermarket", "address": "鞍山市立山区鞍千路90栋S27号", "city": "鞍山市"}}, {"type": "Feature", "id": 1324, "geometry": {"type": "Point", "coordinates": [125.144372757, 42.909803617]}, "properties": {"id": 1324, "name": "辽源店", "chain_slug": "rt-mart", "category_slug": "supermarket", "address": "辽源市龙山区人民大街640号（市公安局南侧）", "city": "辽源市"}}, {"type": "Feature", "id": 1325, "geometry": {"type": "Point", "coordinates": [121.628634825, 42.004896291]}, "properties": {"id": 1325, "name": "海州店", "chain_slug": "rt-mart", "category_slug": "supermarket", "address": "阜新市海州区中华路128号矿工大街与中华路交汇", "city": "阜新市"}}, {"type": "Feature", "id": 1326, "geometry": {"type": "Point", "coordinates": [125.108103634, 46.604071198]}, "properties": {"id": 1326, "name": "萨尔图店", "chain_slug": "rt-mart", "category_slug": "supermarket", "address": "大庆市萨尔图区经六街303号", "city": "大庆市"}}, {"type": "Feature", "id": 1327, "geometry": {"type": "Point", "coordinates": [131.152875543, 46.649425797]}, "properties": {"id": 1327, "name": "双鸭山店", "chain_slug": "rt-mart", "category_slug": "supermarket", "address": "双鸭山市尖山区九阳路5号", "city": "双鸭山市"}}, {"type": "Feature", "id": 1328, "geometry": {"type": "Point", "coordinates": [122.060845031, 41.105736495]}, "properties": {"id": 1328, "name": "兴隆台店", "chain_slug": "rt-mart", "category_slug": "supermarket", "address": "盘锦市兴隆台区泰山北路75号", "city": "盘锦市"}}, {"type": "Feature", "id": 1329, "geometry": {"type": "Point", "coordinates": [122.512986365, 40.628734843]}, "properties": {"id": 1329, "name": "大石桥店", "chain_slug": "rt-mart", "category_slug": "supermarket", "address": "辽宁省大石桥市朝阳路31号", "city": "营口市"}}, {"type": "Feature", "id": 1330, "geometry": {"type": "Point", "coordinates": [129.601753372, 44.569052311]}, "properties": {"id": 1330, "name": "牡丹江西安店", "chain_slug": "rt-mart", "category_slug": "supermarket", "address": "牡丹江西安区新安街西五条路246号", "city": "牡丹江市"}}, {"type": "Feature", "id": 1331, "geometry": {"type": "Point", "coordinates": [121.609370198, 39.000480089]}, "properties": {"id": 1331, "name": "泉水店-AU", "chain_slug": "rt-mart", "category_slug": "supermarket", "address": "辽宁省大连市甘井子区泉水P5区18号", "city": "大连市"}}, {"type": "Feature", "id": 1332, "geometry": {"type": "Point", "coordinates": [121.15284491, 41.113013366]}, "properties": {"id": 1332, "name": "体育场店", "chain_slug": "rt-mart", "category_slug": "supermarket", "address": "锦州市凌河区解放路五段26号银河广场1号", "city": "锦州市"}}, {"type": "Feature", "id": 1333, "geometry": {"type": "Point", "coordinates": [126.515165644, 45.808927079]}, "properties": {"id": 1333, "name": "松北店", "chain_slug": "rt-mart", "category_slug": "supermarket", "address": "哈尔滨松北区世茂大道400号城市之星小区S1号综合体", "city": "哈尔滨市"}}, {"type": "Feature", "id": 1334, "geometry": {"type": "Point", "coordinates": [123.004507187, 41.088804513]}, "properties": {"id": 1334, "name": "湖南街店", "chain_slug": "rt-mart", "category_slug": "supermarket", "address": "辽宁省鞍山市铁东区湖南街16号", "city": "鞍山市"}}, {"type": "Feature", "id": 1335, "geometry": {"type": "Point", "coordinates": [126.54534164, 45.713346942]}, "properties": {"id": 1335, "name": "工农大街店", "chain_slug": "rt-mart", "category_slug": "supermarket", "address": "黑龙江省哈尔滨市道里区四方台大道456号", "city": "哈尔滨市"}}, {"type": "Feature", "id": 1336, "geometry": {"type": "Point", "coordinates": [126.541876178, 43.815706487]}, "properties": {"id": 1336, "name": "江南店", "chain_slug": "rt-mart", "category_slug": "supermarket", "address": "吉林市高新区深圳街顺隆阳光萃苑", "city": "吉林市"}}, {"type": "Feature", "id": 1337, "geometry": {"type": "Point", "coordinates": [121.527448854, 38.86467698]}, "properties": {"id": 1337, "name": "锦辉店", "chain_slug": "rt-mart", "category_slug": "supermarket", "address": "辽宁省大连高新技术产业园区黄浦路517号B1", "city": "大连市"}}, {"type": "Feature", "id": 1338, "geometry": {"type": "Point", "coordinates": [123.430375316, 41.763400709]}, "properties": {"id": 1338, "name": "青年大街店", "chain_slug": "rt-mart", "category_slug": "supermarket", "address": "辽宁省沈阳市沈河区青年大街173号【B1层】【B101】", "city": "沈阳市"}}, {"type": "Feature", "id": 1339, "geometry": {"type": "Point", "coordinates": [125.358808284, 43.850878639]}, "properties": {"id": 1339, "name": "摩天活力城店", "chain_slug": "rt-mart", "category_slug": "supermarket", "address": "长春市经济开发区卫星路1777号", "city": "长春市"}}, {"type": "Feature", "id": 1340, "geometry": {"type": "Point", "coordinates": [124.001801208, 47.337654636]}, "properties": {"id": 1340, "name": "铁锋店", "chain_slug": "rt-mart", "category_slug": "supermarket", "address": "黑龙江省齐齐哈尔市铁锋区红旗路2号", "city": "齐齐哈尔市"}}, {"type": "Feature", "id": 1341, "geometry": {"type": "Point", "coordinates": [124.362688479, 40.112202116]}, "properties": {"id": 1341, "name": "振兴店", "chain_slug": "rt-mart", "category_slug": "supermarket", "address": "丹东市振兴区锦山大街260号天赐未来城", "city": "丹东市"}}, {"type": "Feature", "id": 1342, "geometry": {"type": "Point", "coordinates": [116.617500057, 23.656462272]}, "properties": {"id": 1342, "name": "潮州店", "chain_slug": "rt-mart", "category_slug": "supermarket", "address": "广东省潮州市潮州大道中段奎元广场A区", "city": "潮州市"}}, {"type": "Feature", "id": 1343, "geometry": {"type": "Point", "coordinates": [113.377307268, 22.535625738]}, "properties": {"id": 1343, "name": "石岐店", "chain_slug": "rt-mart", "category_slug": "supermarket", "address": "中山市石歧区大信南路二号", "city": "中山市"}}, {"type": "Feature", "id": 1344, "geometry": {"type": "Point", "coordinates": [113.250444217, 22.824691463]}, "properties": {"id": 1344, "name": "顺德店", "chain_slug": "rt-mart", "category_slug": "supermarket", "address": "佛山市顺德区大良街道办事处近良居委会延年路8号", "city": "佛山市"}}, {"type": "Feature", "id": 1345, "geometry": {"type": "Point", "coordinates": [113.924286498, 22.935003154]}, "properties": {"id": 1345, "name": "大朗店", "chain_slug": "rt-mart", "category_slug": "supermarket", "address": "东莞市大朗镇美景大道新世纪长盛广场3H01大福源", "city": "东莞市"}}, {"type": "Feature", "id": 1346, "geometry": {"type": "Point", "coordinates": [113.239755054, 22.694806193]}, "properties": {"id": 1346, "name": "小榄店", "chain_slug": "rt-mart", "category_slug": "supermarket", "address": "中山市小榄镇升平路18号大福源(小榄大信新都汇内)", "city": "中山市"}}, {"type": "Feature", "id": 1347, "geometry": {"type": "Point", "coordinates": [110.308142586, 20.02666315]}, "properties": {"id": 1347, "name": "国贸店", "chain_slug": "rt-mart", "category_slug": "supermarket", "address": "海南省海口市明珠路八号宜兴商业广场负一楼", "city": "海口市"}}, {"type": "Feature", "id": 1348, "geometry": {"type": "Point", "coordinates": [109.122948889, 21.461274493]}, "properties": {"id": 1348, "name": "海城店", "chain_slug": "rt-mart", "category_slug": "supermarket", "address": "北海市海城区北海大道与北京路交汇处", "city": "北海市"}}, {"type": "Feature", "id": 1349, "geometry": {"type": "Point", "coordinates": [113.215270152, 23.370032169]}, "properties": {"id": 1349, "name": "花都店", "chain_slug": "rt-mart", "category_slug": "supermarket", "address": "广州市花都区新华街龙珠路36号", "city": "广州市"}}, {"type": "Feature", "id": 1350, "geometry": {"type": "Point", "coordinates": [113.784031031, 22.783819238]}, "properties": {"id": 1350, "name": "长安店", "chain_slug": "rt-mart", "category_slug": "supermarket", "address": "东莞市长安镇乌沙振安中路2号", "city": "东莞市"}}, {"type": "Feature", "id": 1351, "geometry": {"type": "Point", "coordinates": [114.025716132, 22.660280725]}, "properties": {"id": 1351, "name": "龙华店", "chain_slug": "rt-mart", "category_slug": "supermarket", "address": "深圳市龙华街道办和平东路与东环二路交界西南角", "city": "深圳市"}}, {"type": "Feature", "id": 1352, "geometry": {"type": "Point", "coordinates": [113.592657276, 24.80303374]}, "properties": {"id": 1352, "name": "韶关店", "chain_slug": "rt-mart", "category_slug": "supermarket", "address": "韶关市解放路与熏风路交汇处(风度名城)", "city": "韶关市"}}, {"type": "Feature", "id": 1353, "geometry": {"type": "Point", "coordinates": [110.370893285, 20.021946447]},